CODE POSTAL,NOM DE LA COMMUNE,latitude,longitude,Code Dept
33710,TEUILLAC,45.0962146262,-0.547066877584,33
33140,VILLENAVE D ORNON,44.773185218,-0.5582122563840001,33
34310,CAPESTANG,43.3217608814,3.04813542922,34
34320,GABIAN,43.5181480219,3.26449755932,34
34725,JONQUIERES,43.673901625,3.47813467686,34
34800,LIAUSSON,43.64027497520001,3.36044063892,34
34570,MURVIEL LES MONTPELLIER,43.6095675101,3.73935842429,34
34380,NOTRE DAME DE LONDRES,43.8324773443,3.75718423369,34
34390,VIEUSSAN,43.5401854893,3.00065269263,34
35580,BAULON,47.9948578338,-1.92813623016,35
35150,BOISTRUDAN,47.9757827279,-1.39686798859,35
35133,LA CHAPELLE JANSON,48.3352768083,-1.08530349718,35
35310,CINTRE,48.108708615,-1.88667263001,35
35330,COMBLESSAC,47.872461539,-2.08792248915,35
42260,BULLY,45.9292601554,3.99269700935,42
42380,LA CHAPELLE EN LAFAYE,45.4593011559,3.98511801378,42
42540,CROIZET SUR GAND,45.91262471939999,4.218798561180002,42
42600,MORNAND EN FOREZ,45.6717929888,4.1195367455900005,42
42470,NEAUX,45.9582864228,4.167298090280002,42
42510,ST GEORGES DE BAROILLE,45.853579241599995,4.10712450945,42
42590,ST PRIEST LA ROCHE,45.9201905216,4.10633617946,42
42130,ST SIXTE,45.772407923100005,3.9742199747,42
42111,ST THURIN,45.818834546000005,3.88477929539,42
42155,VILLEMONTAIS,45.982501838299996,3.93640831898,42
43200,BEAUX,45.1942542124,4.0824814516800005,43
43300,DESGES,45.0221277538,3.4421546000400003,43
43230,DOMEYRAT,45.2455973792,3.5055844005,43
43220,RIOTORD,45.2349277703,4.42239825506,43
43580,ST DIDIER D ALLIER,44.9797771177,3.69651684323,43
43450,ST ETIENNE SUR BLESLE,45.3041441888,3.12573075931,43
44160,BESNE,47.3800629578,-2.0740991398900004,44
44370,MONTRELAIS,47.4026410683,-0.971865462189,44
44590,MOUAIS,47.7049782547,-1.66473754092,44
44290,PIERRIC,47.6890990862,-1.7748626479700005,44
44650,CORCOUE SUR LOGNE,46.9532455273,-1.60060237938,44
45410,BUCY LE ROI,48.0594994911,1.9209840298400005,45
45120,CHALETTE SUR LOING,48.0188121595,2.73578852299,45
45700,CORTRAT,47.9068076955,2.76916633215,45
45300,COURCY AUX LOGES,48.054683224399994,2.21728739508,45
45220,DOUCHY,47.941934323999995,3.04405678632,45
45130,EPIEDS EN BEAUCE,47.9627066917,1.6039003040200002,45
45150,JARGEAU,47.8539370317,2.12063354743,45
45270,LADON,48.0095614328,2.5256269861300003,45
45190,MESSAS,47.8085997033,1.63534579701,45
45170,OISON,48.13454158060001,1.97598018826,45
45590,ST CYR EN VAL,47.81409531590001,1.9598237998400003,45
46100,BEDUER,44.5711043331,1.92666440325,46
46130,BIARS SUR CERE,44.9281999917,1.8570587707900004,46
46230,CREMPS,44.3877412529,1.58297001651,46
46320,ESPEDAILLAC,44.631326210699996,1.7751791604799998,46
46190,LACAM D OURCET,44.842186390200006,2.01143660034,46
46200,LACHAPELLE AUZAC,44.9380023584,1.48031197912,46
46260,LIMOGNE EN QUERCY,44.3966427227,1.77829583648,46
46500,PADIRAC,44.850322191400004,1.7562420507900005,46
46360,SABADEL LAUZES,44.559736244899995,1.6075760766999998,46
46300,ST CLAIR,44.693919372299995,1.39885688127,46
46210,ST HILAIRE,44.7884633484,2.1500806476900003,46
46800,ST LAURENT LOLMIE,44.2872527124,1.2312861209,46
46400,ST MEDARD DE PRESQUE,44.8523355559,1.84227954038,46
47200,BEAUPUY,44.5332209299,0.144907707512,47
47340,CASTELLA,44.3138960011,0.684442218715,47
47260,CASTELMORON SUR LOT,44.407797296400005,0.481340704559,47
47110,DOLMAYRAC,44.3565526064,0.591606081403,47
47220,FALS,44.105271600200005,0.6892545468889999,47
47240,LAFOX,44.16531797060001,0.699221003684,47
47180,LAGUPIE,44.5681807509,0.110810277516,47
47430,LE MAS D AGENAIS,44.3991025317,0.200249161005,47
47210,RAYET,44.6694271783,0.76939339875,47
47270,ST MARTIN DE BEAUVILLE,44.2289840345,0.818300384725,47
48310,ALBARET LE COMTAL,44.867662799799994,3.14383678125,48
48150,GATUZIERES,44.1950868621,3.49763818762,48
48320,ISPAGNAC,44.398452902299994,3.53146290562,48
48140,LE MALZIEU VILLE,44.863075881099995,3.33643761858,48
48700,RIEUTORT DE RANDON,44.6238353175,3.4886504946,48
48200,RIMEIZE,44.764646203999995,3.31719285575,48
48600,ST SYMPHORIEN,44.8399709197,3.62339715605,48
49100,ANGERS,47.476837416,-0.556125995444,49
49260,ARTANNES SUR THOUET,47.2019406008,-0.0969244084187,49
49630,CORNE,47.469024949499996,-0.350503669528,49
49440,LA CORNUAILLE,47.524746829499996,-0.995630411608,49
49390,COURLEON,47.3809189651,0.14699684513800002,49
49700,FORGES,47.21449537149999,-0.23712263964,49
49140,LUE EN BAUGEOIS,47.51953427310001,-0.274631523293,49
49230,ST CRESPIN SUR MOINE,47.112819932,-1.19825247546,49
49420,ST MICHEL ET CHANVEAUX,47.672474781700004,-1.14243087198,49
49110,ST QUENTIN EN MAUGES,47.2888472215,-0.898885980127,49
50420,BEAUCOUDRAY,48.96138804050001,-1.14237512444,50
50150,BROUAINS,48.720771213999996,-0.966952494174,50
50570,CAMETOURS,49.070802003500006,-1.28408388695,50
50340,FLAMANVILLE,49.530584299,-1.86809875664,50
50390,HAUTTEVILLE BOCAGE,49.4282916342,-1.46687598255,50
50870,LE LUOT,48.7661567656,-1.32946620609,50
50690,MARTINVAST,49.598183461000005,-1.64849604825,50
50520,LE MESNIL TOVE,48.6926473211,-1.0158408612899998,50
50270,LES MOITIERS D ALLONNE,49.4032073739,-1.78595352218,50
50410,MONTBRAY,48.883081034899995,-1.10930704314,50
50500,RAIDS,49.20793417260001,-1.34553076662,50
50490,LA RONDE HAYE,49.126869757899996,-1.4425849704799998,50
50680,ST CLAIR SUR L ELLE,49.185184467700005,-1.04046067538,50
50670,ST MICHEL DE MONTJOIE,48.76438444229999,-1.02574787224,50
50220,ST OVIN,48.679231692100004,-1.24401346918,50
50400,ST PLANCHERS,48.830884982600004,-1.50561914851,50
50750,STE SUZANNE SUR VIRE,49.0733180514,-1.05714630383,50
51300,BASSUET,48.8018029229,4.67029926523,51
51270,BAYE,48.8606173405,3.75936134657,51
51400,BOUY,49.0872445057,4.3634950424199985,51
51800,BRAUX STE COHIERE,49.094019761599995,4.8221470678600005,51
51160,CHAMPILLON,49.084824813199994,3.97539279568,51
51530,CHOUILLY,49.0176099992,4.00414015936,51
51330,DAMPIERRE LE CHATEAU,49.0075580233,4.802178899419999,51
51340,VAL DE VIERE,48.8193926004,4.745326121730001,51
51170,FISMES,49.305983724300006,3.6791731942,51
51110,FRESNE LES REIMS,49.3387116381,4.10138563501,51
51480,NANTEUIL LA FORET,49.1277645525,3.9253005658699993,51
51190,OGER,48.9553832689,4.02687417168,51
51390,PARGNY LES REIMS,49.2191370591,3.92180730509,51
51140,PEVY,49.317477181499996,3.85061054201,51
51500,PUISIEULX,49.2008681775,4.11546356735,51
51520,RECY,48.998590401099996,4.32285338175,51
51600,STE MARIE A PY,49.23938061850001,4.50756056596,51
27530,EZY SUR EURE,48.870980651400004,1.41262980866,27
27190,LE FIDELAIRE,48.9436797791,0.80246046702,27
27490,FONTAINE HEUDEBOURG,49.1341759247,1.22209261366,27
27930,GAUCIEL,49.0356183804,1.24708624979,27
27170,GOUPILLIERES,49.1218249959,0.765958514912,27
27270,GRAND CAMP,49.0440587541,0.533720192611,27
27150,HACQUEVILLE,49.2818666204,1.55751068434,27
27700,HARQUENCY,49.2494239305,1.49992266549,27
27590,PITRES,49.3311910772,1.21797145454,27
27400,QUATREMARE,49.1841622689,1.08114735197,27
27410,ST AUBIN LE GUICHARD,49.0385133296,0.708196290797,27
27450,ST CHRISTOPHE SUR CONDE,49.2853748479,0.600693146112,27
27240,THOMER LA SOGNE,48.9077990305,1.16566154375,27
27500,TOUTAINVILLE,49.3566331529,0.458677731967,27
28220,AUTHEUIL,48.0068716323,1.29520633941,28
28140,BAIGNEAUX,48.1283278233,1.82055061372,28
28260,BONCOURT,48.846510259,1.46368452192,28
28210,LE BOULLAY MIVOYE,48.654187749399995,1.40635782342,28
28300,BRICONVILLE,48.516098301099994,1.38866084264,28
28240,CHAMPROND EN GATINE,48.3959360565,1.07458299345,28
28130,CHARTAINVILLIERS,48.543097145299996,1.54564862938,28
28340,LA FERTE VIDAME,48.6000288384,0.8828388866500001,28
28700,GARANCIERES EN BEAUCE,48.43336828899999,1.91544327083,28
28500,GARANCIERES EN DROUAIS,48.702734322299996,1.28199977538,28
28400,MAROLLES LES BUIS,48.366153704,0.94298127545,28
28170,ST JEAN DE REBERVILLIERS,48.623322227399996,1.25762655972,28
28250,SENONCHES,48.559589173999996,1.01905757079,28
28320,YMERAY,48.5089746618,1.7030629617,28
29640,BOLAZEC,48.44254120350001,-3.59509375301,29
29890,BRIGNOGAN PLAGE,48.6673259175,-4.3339567069400005,29
29900,CONCARNEAU,47.896626000299996,-3.90716871821,29
29710,GUILER SUR GOYEN,48.017052401499996,-4.36131542798,29
29530,PLONEVEZ DU FAOU,48.2558447304,-3.82335085497,29
29252,PLOUEZOC H,48.6370431885,-3.81553533985,29
29217,PLOUGONVELIN,48.3513274854,-4.71760872698,29
29700,PLUGUFFAN,47.972064955,-4.18686466839,29
29650,LE PONTHOU,48.557360122,-3.63959984291,29
29830,ST PABU,48.562792462299996,-4.62029383485,29
29800,TREFLEVENEZ,48.4147323372,-4.17573320036,29
20121,AZZANA,42.1129499138,8.93094346781,2A
20133,CARBUCCIA,42.0302927596,8.93626600653,2A
20100,GRANACE,41.6403012602,9.01221939492,2A
20145,SARI SOLENZARA,41.8133599634,9.35220683826,2A
20116,ZERUBIA,41.7511203775,9.05738566611,2A
20219,MURACCIOLE,42.1685019963,9.18999511821,2B
20225,NESSA,42.5498317519,8.95572841625,2B
20290,PENTA ACQUATELLA,42.4636442257,9.37213628263,2B
20233,PIETRACORBARA,42.8446413084,9.43811996376,2B
20251,PIETRASERENA,42.2338486385,9.35461476082,2B
20221,SANTA MARIA POGGIO,42.3499153056,9.50880691499,2B
20229,VALLE D OREZZA,42.362363537600004,9.40202286355,2B
30700,ARPAILLARGUES ET AUREILLAC,43.9996930612,4.36386339286,30
30770,ARRIGAS,43.9902038605,3.4811767607199995,30
30200,BAGNOLS SUR CEZE,44.162249673599995,4.6247738085400005,30
30210,COLLIAS,43.9490522277,4.47176606244,30
30300,COMPS,43.848697153,4.59238144538,30
30250,LECQUES,43.8432239983,4.05620169328,30
30122,LES PLANTIERS,44.108139948,3.71311936193,30
30120,ROGUES,43.8787778933,3.5616521889,30
31160,ARBAS,42.992559505200006,0.905628547412,31
31370,BEAUFORT,43.45486180979999,1.10650961074,31
31350,BLAJAN,43.2538737528,0.647870154984,31
31530,BRETX,43.7059673494,1.19620532147,31
31280,DREMIL LAFAGE,43.5917450046,1.60317858456,31
31210,GOURDAN POLIGNAN,43.0693789495,0.575641802967,31
31340,MIREPOIX SUR TARN,43.8243902958,1.5774699768,31
31260,MONTGAILLARD DE SALIES,43.0589200964,0.93221860467,31
31420,MONTOULIEU ST BERNARD,43.230908247100004,0.906414880793,31
31320,PECHBUSQUE,43.5246551254,1.45720316264,31
31330,ST CEZERT,43.7809324067,1.19152811145,31
31580,ST PLANCARD,43.167963108100004,0.570009022734,31
31620,ST RUSTICE,43.8031334358,1.3281760875700002,31
31790,ST SAUVEUR,43.7513409309,1.3957911718,31
31880,LA SALVETAT ST GILLES,43.575480021800004,1.2661631987200002,31
32270,BLANQUEFORT,43.674279339899996,0.807524720457,32
32200,ESCORNEBOEUF,43.6455146384,0.911624650166,32
32420,GAUJAN,43.4017018415,0.727114709215,32
32230,LADEVEZE RIVIERE,43.5507415882,0.0840810625549,32
32380,MAUROUX,43.9070056495,0.824272401269,32
32360,MERENS,43.751078864300005,0.549608367761,32
32300,MIRANDE,43.5186713962,0.410792361049,32
32350,MIRANNES,43.6243319554,0.38349486791,32
32730,MONTEGUT ARROS,43.3828965427,0.225654672696,32
32320,PEYRUSSE GRANDE,43.6297892475,0.222152970344,32
32130,POLASTRON,43.5342676704,0.838990733571,32
32600,PUJAUDRAN,43.5897953804,1.17106411645,32
32450,ST MARTIN GIMOIS,43.520099154499995,0.8103523657680001,32
32290,ST PIERRE D AUBEZIES,43.6493896565,0.162149090405,32
32260,SANSAN,43.5278730462,0.6127889550069999,32
33500,ARVEYRES,44.891560974499995,-0.2766650988,33
33480,AVENSAN,45.005403306999995,-0.7608154274519999,33
33720,BUDOS,44.5346733151,-0.399965558931,33
33190,CAMIRAN,44.6347802416,-0.0680146855411,33
33360,CARIGNAN DE BORDEAUX,44.8094507679,-0.472244925995,33
33490,CAUDROT,44.5846738826,-0.14487844222899998,33
33340,COUQUEQUES,45.3438294429,-0.847957119677,33
33350,DOULEZON,44.79243437149999,-0.00123843132534,33
33540,LANDERROUET SUR SEGUR,44.6535808373,-0.0206044198936,33
33220,MARGUERON,44.7662541658,0.255840872998,33
33580,MONSEGUR,44.6462089079,0.08929042081739999,33
33430,LE NIZAN,44.47020934060001,-0.280941561777,33
33820,PLEINE SELVE,45.3271088387,-0.582258150086,33
33410,STE CROIX DU MONT,44.5979961934,-0.272147017146,33
33250,ST JULIEN BEYCHEVELLE,45.157238469300005,-0.737068946375,33
33650,ST SELVE,44.654980844799994,-0.4726346631360001,33
33690,SILLAS,44.3693679441,-0.0585641941826,33
33370,TRESSES,44.841912487100004,-0.469935856995,33
33730,VILLANDRAUT,44.450020921400004,-0.380716602185,33
33380,MARCHEPRIME,44.7030054504,-0.856342535157,33
34290,BASSAN,43.4084026514,3.2545400418,34
34360,FERRIERES POUSSAROU,43.483345030900004,2.903540512,34
34270,FONTANES,43.7944026303,3.91839771103,34
34160,GALARGUES,43.782331336400006,4.00782608796,34
34130,LANSARGUES,43.636443685399996,4.08270443666,34
34480,PUISSALICON,43.4539009157,3.23775688397,34
34700,ST ETIENNE DE GOURGAS,43.783696372799994,3.38499935958,34
34520,ST MAURICE NAVACELLES,43.844873423900005,3.5062650669,34
34400,ST NAZAIRE DE PEZAN,43.6351201941,4.11706198292,34
34410,SAUVIAN,43.2910373806,3.2540647928400004,34
34350,VALRAS PLAGE,43.2476112282,3.28929431362,34
34560,VILLEVEYRAC,43.5001280333,3.59372946669,34
35520,LA CHAPELLE DES FOUGERETZ,48.17689373010001,-1.7406718582299998,35
35360,LA CHAPELLE DU LOU,48.2222623755,-1.99322262284,35
35210,CHATILLON EN VENDELAIS,48.2287242632,-1.16547272515,35
35270,COMBOURG,48.4083560805,-1.7451943501900002,35
35140,GOSNE,48.2503523895,-1.45860853595,35
35220,ST DIDIER,48.093215864399994,-1.3580684520299997,35
35750,ST MALON SUR MEL,48.0944048491,-2.11182383067,35
35460,ST MARC LE BLANC,48.3752704313,-1.40505053569,35
36310,BEAULIEU,46.3854812968,1.29760988524,36
36110,BRETAGNE,46.999120025,1.69787130226,36
36230,MERS SUR INDRE,46.6693679113,1.87334410692,36
36220,NEONS SUR CREUSE,46.734899055,0.917095458404,36
36210,POULAINES,47.1498063168,1.64502006889,36
36300,RUFFEC,46.6238195664,1.1836718516,36
36100,STE FAUSTE,46.8545598385,1.87113964602,36
36370,ST HILAIRE SUR BENAIZE,46.556930611599995,1.06674152425,36
36160,STE SEVERE SUR INDRE,46.5042219323,2.06769602901,36
36600,VALENCAY,47.155843348299996,1.55858540806,36
36150,VATAN,47.0538873718,1.82531478025,36
36400,VERNEUIL SUR IGNERAIE,46.654249212399996,2.01447840786,36
37130,BREHEMONT,47.2893596195,0.361536652473,37
37150,DIERRE,47.3536037001,0.956010471155,37
37160,MARCE SUR ESVES,47.030526924899995,0.659737945823,37
37800,PUSSIGNY,46.9896027807,0.54864410398,37
37190,RIVARENNES,47.2512605554,0.362365468313,37
37510,ST GENOUPH,47.372417390600006,0.589386626061,37
37600,VARENNES,47.070939816800006,0.912799456944,37
38140,APPRIEU,45.3973605604,5.496370196699999,38
38150,ASSIEU,45.4098620584,4.87676181443,38
38300,BOURGOIN JALLIEU,45.6022027954,5.27393762111,38
38230,CHAVANOZ,45.768883494099995,5.172595867219999,38
38420,DOMENE,45.204038668100004,5.838296045680001,38
38770,LA MOTTE ST MARTIN,44.946378251700004,5.71905629,38
38260,MOTTIER,45.4232022991,5.30860721755,38
38340,POMMIERS LA PLACETTE,45.31986211939999,5.6786107199,38
38190,STE AGNES,45.210335416899994,5.95984837057,38
38370,ST CLAIR DU RHONE,45.4354138205,4.77287890453,38
38650,ST GUILLAUME,44.945365938500004,5.5908454996399986,38
38660,STE MARIE DU MONT,45.4062736697,5.93038202226,38
38200,ST SORLIN DE VIENNE,45.473284415200006,4.93813857629,38
38970,LA SALETTE FALLAVAUX,44.8433178683,5.98498987593,38
38700,LE SAPPEY EN CHARTREUSE,45.26521241,5.78391032229,38
38460,VERNAS,45.7770907345,5.26765483745,38
38114,VILLARD RECULAS,45.0936836388,6.0372345748,38
39120,ASNANS BEAUVOISIN,46.9370009894,5.396770709859999,39
39800,AUMONT,46.9161293357,5.632725925750001,39
39320,BROISSIA,46.356294390100004,5.432856623969999,39
39160,CHAZELLES,46.4083598307,5.330268132860001,39
39260,COYRON,46.5124158536,5.69815405752,39
39190,CUISIA,46.5467474362,5.40533542507,39
39210,GRANGES SUR BAUME,46.718165591,5.66829317413,39
39360,JEURRE,46.3689937737,5.704784725290001,39
39110,LEMUY,46.889073622,5.9824142491400005,39
39000,LONS LE SAUNIER,46.6744796278,5.5573321294700015,39
39380,LA LOYE,47.0305064268,5.55264274121,39
39130,MENETRUX EN JOUX,46.6239722837,5.83804866069,39
39570,MIREBEL,46.7000086566,5.734865994369999,39
39270,ORGELET,46.506335909499995,5.62225313092,39
39350,OUGNEY,47.240707184499996,5.65989069882,39
39370,LA PESSE,46.286468541000005,5.85238812673,39
39700,ROCHEFORT SUR NENON,47.122629070900004,5.556316423180001,39
40240,CREON D ARMAGNAC,43.9952890631,-0.0829196527802,40
40360,DONZACQ,43.6591843115,-0.806382992086,40
40350,GAAS,43.6103431996,-1.04133365689,40
40420,GAREIN,44.0485811628,-0.649725235067,40
40090,GELOUX,43.979876680699995,-0.640212463679,40
40170,LEVIGNACQ,44.009843871,-1.15331315193,40
40260,LINXE,43.929243873199994,-1.21865314425,40
40270,MAURRIN,43.825810397,-0.37207191745,40
40300,OEYREGAVE,43.5277445568,-1.0989342622700002,40
40380,ST GEOURS D AURIBAT,43.7550006241,-0.8411787650329999,40
40180,ST PANDELON,43.66874805,-1.03963619936,40
40990,ST PAUL LES DAX,43.746408313900005,-1.08127980711,40
41330,LA CHAPELLE VENDOMOISE,47.675869650299994,1.23879753733,41
41800,FONTAINE LES COTEAUX,47.798872695,0.8356894484469999,41
41230,MUR DE SOLOGNE,47.417215518599996,1.59888181618,41
41170,OIGNY,48.064032676400004,0.911161000483,41
41100,PEZOU,47.8682993601,1.1463363406799998,41
41110,POUILLE,47.307645882799996,1.27817094314,41
41600,SOUVIGNY EN SOLOGNE,47.6491986207,2.16743831481,41
72250,BRETTE LES PINS,47.91078777470001,0.326771387948,72
72200,CRE,47.657970794200004,-0.139863382378,72
72260,DANGEUL,48.249017064300006,0.26099720415100003,72
72500,LUCEAU,47.717703307700006,0.391455867565,72
72600,NEUFCHATEL EN SAOSNOIS,48.3875624138,0.245183264636,72
72340,PONCE SUR LE LOIR,47.7736203084,0.657052556948,72
72300,PRECIGNE,47.7644010028,-0.318024755467,72
72550,LA QUINTE,48.0511343365,0.0420391198634,72
72700,ROUILLON,48.0005070104,0.142249684917,72
72110,ST AIGNAN,48.2178811072,0.34647150751,72
72130,ST AUBIN DE LOCQUENAY,48.2582927988,0.00918330836218,72
72220,ST MARS D OUTILLE,47.8696754844,0.342695139915,72
72150,ST PIERRE DU LOROUER,47.7963803238,0.50839859976,72
72320,THELIGNY,48.1717914833,0.785600114205,72
72800,THOREE LES PINS,47.6661683505,0.033931780407400004,72
73500,BRAMANS,45.18737013,6.8422536796500015,73
73370,LA CHAPELLE DU MONT DU CHAT,45.7138835544,5.854717438940001,73
73190,CURIENNE,45.55945470859999,6.01073450691,73
73420,DRUMETTAZ CLARAFOND,45.6612110951,5.9378142703100005,73
73470,GERBAIX,45.6072180611,5.73727466441,73
73800,MYANS,45.518785216400005,5.978437840980001,73
73130,ST COLOMBAN DES VILLARDS,45.2665810428,6.18303706085,73
73410,ST OURS,45.7555682291,5.98099167623,73
73730,ST PAUL SUR ISERE,45.5869203358,6.40696654722,73
73250,ST PIERRE D ALBIGNY,45.57632593979999,6.1598571367,73
73460,ST VITAL,45.6265051509,6.300212252050001,73
74140,BALLAISON,46.293258743500004,6.344000936869999,74
74230,LE BOUCHET,45.8045733703,6.38410878026,74
74270,CONTAMINE SARZIN,46.0216239121,5.9814848622399985,74
74700,DOMANCY,45.9071921608,6.66391720268,74
74500,EVIAN LES BAINS,46.3924102379,6.58612507528,74
74540,HERY SUR ALBY,45.791943751999995,6.01056501234,74
74890,LULLY,46.292755058900006,6.40876638382,74
74490,ONNION,46.1816924284,6.49869806571,74
74250,PEILLONNEX,46.132390326899994,6.3823564825900005,74
74350,ST BLAISE,46.0663582053,6.091540994369999,74
74520,VALLEIRY,46.1152145208,5.97022697234,74
76630,ASSIGNY,49.9827883688,1.28759631954,76
76660,BAILLEUL NEUVILLE,49.8096848103,1.42191745617,76
76460,BLOSSEVILLE,49.8517136322,0.8019173563040001,76
76890,CALLEVILLE LES DEUX EGLISES,49.70361684939999,1.02150696093,76
76380,CANTELEU,49.4330992435,1.01355208279,76
76260,CUVERVILLE SUR YERES,49.9515780673,1.3887364896099998,76
76970,FLAMANVILLE,49.6312697717,0.832008310079,76
76270,FLAMETS FRETILS,49.725618645699996,1.58280844201,76
76110,GONFREVILLE CAILLOT,49.6520308002,0.440253516483,76
76440,HAUCOURT,49.64421337,1.67253134593,76
76690,LA HOUSSAYE BERANGER,49.629530026000005,1.08374590785,76
76117,INCHEVILLE,50.00515956090001,1.49981533136,76
76780,LE MESNIL LIEUBRAY,49.515515021400006,1.50750794414,76
76680,NEUFBOSC,49.6462799246,1.36132710657,76
76160,PREAUX,49.4871501461,1.2158124042,76
76640,ROCQUEFORT,49.6678070405,0.7031783177009999,76
76400,ST LEONARD,49.73218183220001,0.341907614977,76
77700,BAILLY ROMAINVILLIERS,48.84342849260001,2.81665828126,77
77750,BASSEVELLE,48.922849669399994,3.28206618815,77
77120,BEAUTHEIL,48.761172382,3.09611614733,77
77177,BROU SUR CHANTEREINE,48.8901616457,2.63989859744,77
77420,CHAMPS SUR MARNE,48.84833117260001,2.59610325483,77
77390,CHAUMES EN BRIE,48.6671544898,2.84491273965,77
77400,DAMPMART,48.8943626322,2.74598280906,77
77940,ESMANS,48.34295198069999,2.96915653301,77
77650,LIZINES,48.5280718067,3.16532874131,77
77133,MACHAULT,48.445996968,2.84112295871,77
77690,MONTIGNY SUR LOING,48.34133246880001,2.75094860085,77
77260,REUIL EN BRIE,48.956568016599995,3.16343930327,77
77670,VERNOU LA CELLE SUR SEINE,48.4062374172,2.85382135685,77
78930,AUFFREVILLE BRASSEUIL,48.954418567,1.70514751215,78
78440,DROCOURT,49.0519623345,1.76822079992,78
78920,ECQUEVILLY,48.9459356042,1.92004051912,78
78810,FEUCHEROLLES,48.8800880696,1.97983777956,78
78600,MAISONS LAFFITTE,48.9523369002,2.15161594901,78
78790,MONTCHAUVET,48.8916704709,1.6268149739200002,78
78660,PARAY DOUAVILLE,48.4599663329,1.86291670006,78
78770,THOIRY,48.872462400399996,1.79780062062,78
78490,LE TREMBLAY SUR MAULDRE,48.7834999157,1.878022372,78
78320,LA VERRIERE,48.7545862133,1.95133109322,78
79300,BOISME,46.7824800962,-0.433256356633,79
79110,BOUIN,46.091189821499995,-0.013229553499,79
79140,CERIZAY,46.821731103599994,-0.672469385521,79
79340,CHANTECORPS,46.502716830299995,-0.14677650863,79
79150,ETUSSON,47.0084758541,-0.5442068683219999,79
79130,POUGNE HERISSON,46.660301587,-0.413918277159,79
79420,VAUTEBIS,46.53254056220001,-0.153027126045,79
79310,VOUHE,46.5598449488,-0.25593190505,79
80370,AGENVILLE,50.17180323220001,2.10777026695,80
80690,AILLY LE HAUT CLOCHER,50.0813661279,1.996040675,80
80110,AUBERCOURT,49.8378941809,2.54731400317,80
80700,BALATRE,49.711297703199996,2.86504759397,80
80200,BERNY EN SANTERRE,49.8665475178,2.85058126397,80
80310,CAVILLON,49.91822454770001,2.07548412693,80
80560,COLINCAMPS,50.10155460439999,2.60960193283,80
80132,DRUCAT,50.1459729311,1.86130040867,80
80140,ETREJUST,49.9117893247,1.88724692625,80
80360,FLERS,50.0506500725,2.8177352266400004,80
80290,FRESNOY AU VAL,49.837489903299996,2.0514373970400004,80
80490,FRUCOURT,49.9984233646,1.81098988886,80
80600,GEZAINCOURT,50.13934117229999,2.31166746071,80
80540,GUIGNEMICOURT,49.871225028299996,2.16839769767,80
80800,IGNAUCOURT,49.81797694300001,2.57616977207,80
80320,LIHONS,49.828171948299996,2.75595093445,80
80135,MAISON ROLAND,50.1283581508,2.02616048057,80
80260,MIRVAUX,50.0030619644,2.3976230968,80
80120,ST QUENTIN EN TOURMONT,50.2799548442,1.57689944614,80
80300,THIEPVAL,50.0597825128,2.68781215568,80
80870,TOEUFLES,50.062444427299994,1.71192475287,80
81640,COMBEFA,44.049800645699996,2.09498362646,81
81990,CUNAC,43.92743963979999,2.2251497449400004,81
81170,ITZAC,44.050630572399996,1.84654889285,81
81500,LAVAUR,43.689562871099994,1.79437213708,81
81300,MISSECLE,43.7204559447,1.98643784492,81
81710,NAVES,43.564437616499994,2.21838218726,81
81310,PEYROLE,43.8140246495,1.89716126791,81
81390,ST GAUZENS,43.742108686499996,1.8813289248700005,81
81700,ST GERMAIN DES PRES,43.5628494713,2.07801085173,81
81440,VENES,43.737370675200005,2.19476004846,81
82160,CASTANET,44.2603354224,1.92951732347,82
82140,CAZALS,44.1249834446,1.6848635445,82
82120,MAUMUSSON,43.9122841203,0.906121220446,82
82100,MONTAIN,43.941656743500005,1.11390121929,82
82800,MONTRICOUX,44.1035057733,1.62418942804,82
82110,TREJOULS,44.2668414309,1.20229550462,82
83600,BAGNOLS EN FORET,43.533095500200005,6.70850106064,83
83520,ROQUEBRUNE SUR ARGENS,43.4285090958,6.65212881719,83
83430,ST MANDRIER SUR MER,43.075432294799995,5.92642315155,83
84480,LACOSTE,43.8257421042,5.26592271907,84
84290,LAGARDE PAREOL,44.227215451199996,4.85109427827,84
84450,ST SATURNIN LES AVIGNON,43.9621529369,4.94109967241,84
84210,VENASQUE,43.985123766099996,5.165068655880001,84
84530,VILLELAURE,43.707515713599996,5.43085449725,84
85110,CHANTONNAY,46.6690167793,-1.04372588019,85
85260,LA COPECHAGNIERE,46.852398018100004,-1.34349746898,85
85800,LE FENOUILLER,46.7161264566,-1.89206667498,85
85770,L ILE D ELLE,46.333425865500004,-0.919100677098,85
85150,LANDERONDE,46.6549237031,-1.57351777893,85
85560,LONGEVILLE SUR MER,46.4091029013,-1.47711855345,85
85640,MOUCHAMPS,46.7870550926,-1.05454102867,85
85170,LE POIRE SUR VIE,46.76991975399999,-1.5048862645200003,85
85700,LA POMMERAIE SUR SEVRE,46.8255594013,-0.7930734983419999,85
85000,LA ROCHE SUR YON,46.667526164399995,-1.4077954093,85
85410,ST LAURENT DE LA SALLE,46.5854041653,-0.922177315485,85
85200,ST MICHEL LE CLOUCQ,46.4861591475,-0.743056336646,85
85660,ST PHILBERT DE BOUAINE,46.9927907526,-1.5073882241999998,85
85450,STE RADEGONDE DES NOYERS,46.369424690900004,-1.06671995264,85
85230,ST URBAIN,46.881837132799994,-2.01607828912,85
85540,ST VINCENT SUR GRAON,46.50347566560001,-1.382954206,85
86400,CHAMPNIERS,46.214819599399995,0.327805032659,86
86210,LA CHAPELLE MOULIERE,46.6458608784,0.536909480756,86
86330,LA GRIMAUDIERE,46.802651628599996,0.0301338119599,86
86310,HAIMS,46.513121388,0.927029519838,86
86600,JAZENEUIL,46.46763631090001,0.07475968936639997,86
86200,MESSEME,47.0106163687,0.16882423682,86
86150,MILLAC,46.1948553644,0.705514594963,86
86380,OUZILLY,46.7754878528,0.357821774595,86
87290,BALLEDENT,46.1086784953,1.21629867254,87
87700,BEYNAC,45.7677930043,1.1655637429,87
87140,CHAMBORET,46.005661758100004,1.12492081757,87
87440,LA CHAPELLE MONTBRANDEIX,45.644790770200004,0.853394327923,87
87920,CONDAT SUR VIENNE,45.783326080100004,1.2400833862,87
87260,ST BONNET BRIANCE,45.7152554102,1.4847071042500002,87
87480,ST PRIEST TAURION,45.8976553193,1.3966265023,87
87320,THIAT,46.274545979799996,0.969728310358,87
88500,BAUDRICOURT,48.309728121199996,6.0571725673899985,88
88260,BELMONT LES DARNEY,48.0858034217,6.01460062165,88
88450,BETTEGNEY ST BRICE,48.3034515964,6.31437877151,88
88270,BOUZEMONT,48.2506946208,6.2399049237,88
88600,LA CHAPELLE DEVANT BRUYERES,48.178743233,6.80624772393,88
88630,DOMREMY LA PUCELLE,48.44048839550001,5.65618746343,88
88320,FRAIN,48.0826848096,5.88107000168,88
88230,FRAIZE,48.186317725500004,7.018010712100001,88
88170,GEMMELAINCOURT,48.274212210200005,5.967097786189999,88
88140,MORVILLE,48.2347546949,5.79472191903,88
88100,ST DIE DES VOSGES,48.296709351400004,6.938093675469999,88
88470,ST MICHEL SUR MEURTHE,48.3116592875,6.876084591110001,88
88120,VAGNEY,48.0180970849,6.72440624988,88
88400,XONRUPT LONGEMER,48.0716092272,6.953745864249999,88
89460,ACCOLAY,47.656216204799996,3.70516767452,89
89230,BLEIGNY LE CARREAU,47.8317186329,3.67738872198,89
89630,BUSSIERES,47.42741696109999,4.05359315765,89
89400,CHARMOY,47.9415525641,3.49409153134,89
89660,FONTENAY SOUS FOURONNES,47.621434757399996,3.6021281617300005,89
89510,PASSY,48.113257139,3.29533793656,89
89270,SACY,47.663964254300005,3.81398058879,89
89170,ST MARTIN DES CHAMPS,47.6588823611,3.02834068016,89
89110,ST MAURICE THIZOUAILLE,47.8332646182,3.36323456172,89
89160,STIGNY,47.7795307025,4.2389047068,89
89420,THIZY,47.58183768,4.05915393328,89
90000,BELFORT,47.647153941400006,6.84541206237,90
90130,BRETAGNE,47.5906442362,7.000457742639999,90
90100,FLORIMONT,47.5370834795,7.05075565634,90
90170,LAMADELEINE VAL DES ANGES,47.7601153142,6.909103362510001,90
91540,MENNECY,48.5586242184,2.43753236038,91
91120,PALAISEAU,48.7146765876,2.22881488083,91
91550,PARAY VIEILLE POSTE,48.724184821899996,2.3598349385,91
91240,ST MICHEL SUR ORGE,48.6320496004,2.31170277845,91
92290,CHATENAY MALABRY,48.768169019700004,2.26282598525,92
92260,FONTENAY AUX ROSES,48.789730131199995,2.28723493557,92
93170,BAGNOLET,48.8690836308,2.42274096688,93
94480,ABLON SUR SEINE,48.7238409464,2.42117629348,94
94200,IVRY SUR SEINE,48.8128063812,2.38778023612,94
94100,ST MAUR DES FOSSES,48.7990677797,2.4938645045200003,94
94300,VINCENNES,48.847373204499995,2.43798650741,94
95660,CHAMPAGNE SUR OISE,49.142775912299996,2.22801680604,95
95780,HAUTE ISLE,49.0827306409,1.66281760836,95
95670,MARLY LA VILLE,49.0815057636,2.5087179751,95
95380,PUISEUX EN FRANCE,49.0668504076,2.48852340935,95
95810,VALLANGOUJARD,49.1340749867,2.1039334484200003,95
97116,POINTE NOIRE,,,
97212,ST JOSEPH,,,
97390,REGINA,,,
97352,ROURA,,,
97470,ST BENOIT,,,
97411,ST PAUL,,,
97670,OUANGANI,,,
98610,ALO,,,
98786,ANAA,,,
98707,HITIAA O TE RA,,,
98771,MANIHI,,,
98732,MAUPITI,,,
98728,MOOREA MAIAO,,,
98722,TAIARAPU EST,,,
98881,FARINO,,,
1230,ARANDAS,45.8908155275,5.49870439091,01
1190,ARBIGNY,46.4776762988,4.9599416863,01
1510,ARMIX,45.8541838459,5.58357838695,01
1200,BELLEGARDE SUR VALSERINE,46.1067901755,5.83202736464,01
1310,CURTAFOND,46.273150382,5.1020896267,01
1090,FRANCHELEINS,46.0735946256,4.81293575559,01
1300,IZIEU,45.655749640699995,5.6390914079400005,01
1250,JASSERON,46.215003706400005,5.312153723380002,01
1640,JUJURIEUX,46.0497041467,5.41094771899,01
1120,PIZAY,45.892850958100006,5.08915465965,01
1240,ST ANDRE LE BOUCHOUX,46.1131399612,5.0802376895,01
1800,ST JEAN DE NIOST,45.84050025689999,5.21167430462,01
1160,ST MARTIN DU MONT,46.106150083500005,5.32551470817,01
1560,ST TRIVIER DE COURTES,46.4612969335,5.06679195727,01
1570,VESINES,46.359339775100004,4.862658522019999,01
2170,BARZY EN THIERACHE,50.039537587299996,3.74901595409,02
2290,BIEUXY,49.4476050585,3.26985890807,02
2110,BOHAIN EN VERMANDOIS,49.989032873999996,3.46522354976,02
2330,CELLES LES CONDE,49.0148161041,3.5700742384699997,02
2370,CHAVONNE,49.40731621850001,3.56243209622,02
2400,EPIEDS,49.1045180167,3.45072347386,02
2570,ESSISES,48.9666904843,3.41396491705,02
2670,FOLEMBRAY,49.54928205939999,3.29319165625,02
2160,GERNICOURT,49.395238235200004,3.86382109909,02
2140,MARFONTAINE,49.8080469097,3.7639268819,02
2820,MAUREGNY EN HAYE,49.540623087700006,3.79762834314,02
2300,LA NEUVILLE EN BEINE,49.6762298475,3.15600362361,02
2100,NEUVILLE ST AMAND,49.8206477091,3.33360991741,02
2390,ORIGNY STE BENOITE,49.8268502674,3.52909324665,02
2190,PROVISEUX ET PLESNOY,49.477722477200004,4.0158784311,02
2200,SOISSONS,49.3791742979,3.32471758491,02
2120,VADENCOURT,49.922977161300004,3.57386118846,02
2800,VERSIGNY,49.658136733,3.44270966266,02
2340,LA VILLE AUX BOIS LES DIZY,49.662657296800006,3.98152083729,02
2870,VIVAISE,49.6228688465,3.56431943267,02
2830,WATIGNY,49.9163639357,4.20040317785,02
2500,WIMY,49.9480535708,3.99735885106,02
3210,AUTRY ISSARDS,46.544575550299996,3.12273629246,03
3130,AVRILLY,46.332137773999996,3.96662161873,03
3160,BOURBON L ARCHAMBAULT,46.58368191130001,3.05141625983,03
3300,CREUZIER LE VIEUX,46.160598874499996,3.4343508972600003,03
3370,MESPLES,46.427262116099996,2.36441867083,03
3450,NADES,46.1542506646,2.9686183490400007,03
3360,VALIGNY,46.7156221865,2.82039123195,03
3110,VENDAT,46.16181165689999,3.34727094186,03
3200,VICHY,46.1300051383,3.42442081174,03
4380,LE CASTELLARD MELAN,44.2016431995,6.131595213250001,04
4420,DRAIX,44.1299391525,6.37179977607,04
4310,GANAGOBIE,44.002586212299995,5.908500761290001,04
4220,STE TULLE,43.7830482525,5.77302331731,04
4250,TURRIERS,44.391588210100004,6.15918221528,04
5140,LA BEAUME,44.5482914658,5.65375214301,05
5700,MEREUIL,44.383974146899995,5.71259098721,05
5150,MONTJAY,44.366438091899994,5.61455270536,05
5300,LE POET,44.2789746584,5.901313184279998,05
5500,ST EUSEBE EN CHAMPSAUR,44.72242691140001,6.036466086209999,05
5190,THEUS,44.48521061010001,6.196882530469999,05
5290,VALLOUISE,44.8308280468,6.41197014257,05
6260,LA CROIX SUR ROUDOULE,44.000309665299994,6.87019911618,06
6710,MALAUSSENE,43.9153232562,7.141120634510001,06
6300,NICE,43.711999266099994,7.23826889465,06
6910,PIERREFEU,43.8851912789,7.071008137100001,06
6590,THEOULE SUR MER,43.4985345439,6.92965248383,06
6420,TOURNEFORT,43.941398875699996,7.158503150930001,06
7330,BARNAS,44.668966428699996,4.15925851766,07
7440,BOFFRES,44.919020401000004,4.696065111419999,07
7590,BORNE,44.61722236550001,4.04171006026,07
7260,JOYEUSE,44.470531994,4.24753667585,07
7150,ORGNAC L AVEN,44.3101002443,4.423697152869999,07
7510,ST CIRGUES EN MONTAGNE,44.7681344892,4.0890257431,07
7310,ST CLEMENT,44.94999949050001,4.26018660775,07
7190,ST JULIEN DU GUA,44.7707970545,4.44037521655,07
8250,AUTRY,49.265704991999996,4.8311535079,08
8400,BALLAY,49.421697192799996,4.75197348184,08
8290,BLANCHEFOSSE ET BAY,49.766583197399996,4.25235197584,08
8300,DOUX,49.516603776000004,4.42838018465,08
8110,LINAY,49.6161969407,5.228903599340001,08
8220,MONTMEILLANT,49.7025931592,4.32852997041,08
8380,LA NEUVILLE AUX JOUTES,49.9331443854,4.240874409669998,08
8000,PRIX LES MEZIERES,49.7480987384,4.6856741205,08
8430,RAILLICOURT,49.652527319799994,4.5909769040400015,08
8190,ROIZY,49.4259330532,4.18557721616,08
8130,ST LAMBERT ET MONT DE JEUX,49.4980282741,4.62474617403,08
8090,SURY,49.7658504549,4.61209618307,08
9250,AXIAT,42.7997046069,1.7610032157299995,09
9600,BELLOC,43.0072443769,1.93332486097,09
9500,BESSET,43.072738948,1.84596031443,09
9700,CANTE,43.2487009717,1.52354253407,09
9200,MONTEGUT EN COUSERANS,42.98343760149999,1.09301526592,09
9240,NESCUS,42.9917806971,1.43531153938,09
9130,PAILHES,43.1002752651,1.44680858932,09
9400,QUIE,42.8425853909,1.5895533302399998,09
9120,VENTENAC,42.997388469300006,1.72364720344,09
10110,BUXIERES SUR ARCE,48.137174666199996,4.45605728723,10
10510,CHATRES,48.4931286007,3.83670871212,10
10190,DIERREY ST PIERRE,48.332529162600004,3.83136359134,10
10200,FONTAINE,48.2092891642,4.718050686230001,10
10220,MESNIL SELLIERES,48.3358644177,4.206670578130002,10
10210,METZ ROBERT,48.069471488599994,4.09978778841,10
10500,MORVILLIERS,48.3786765454,4.63547205459,10
10350,LE PAVILLON STE JULIE,48.366501155600005,3.9015348936,10
10170,PREMIERFAIT,48.5029794134,4.02255796125,10
10700,ST NABORD SUR AUBE,48.51289189590001,4.20166023679,10
10370,VILLENAUXE LA GRANDE,48.5945779935,3.5477753332,10
11500,BRENAC,42.8982996982,2.14492235914,11
11160,CAUNES MINERVOIS,43.332796319799996,2.51635482478,11
11240,MAZEROLLES DU RAZES,43.1364410454,2.06601390083,11
11320,MONTFERRAND,43.368751028,1.82823175156,11
11410,PAYRA SUR L HERS,43.2622935263,1.87477238509,11
11360,QUINTILLAN,42.9592603481,2.70315796115,11
11140,RODOME,42.7964846966,2.0672394673,11
11110,SALLES D AUDE,43.2361241545,3.10717237313,11
11150,VILLEPINTE,43.2808698633,2.09551779472,11
12350,BRANDONNET,44.3823756053,2.1374677844,12
12510,DRUELLE,44.3609252009,2.47671597719,12
12360,FAYET,43.8035569048,2.97747865298,12
12230,LAPANOUSE DE CERNON,44.0062686145,3.09638242965,12
12390,MAYRAN,44.389073546800006,2.37196392635,12
12210,MONTPEYROUX,44.6349727499,2.78247380179,12
12130,PIERREFICHE,44.4338467479,2.92167553343,12
12620,ST LAURENT DE LEVEZOU,44.2089764028,2.93837029184,12
12200,SANVENSA,44.284499795900004,2.04052425454,12
13980,ALLEINS,43.707419774499996,5.15105029207,13
13170,CABRIES,43.4496421919,5.34976663984,13
13580,LA FARE LES OLIVIERS,43.5544485185,5.20247621443,13
13340,ROGNAC,43.4971347324,5.231062200209999,13
13830,ROQUEFORT LA BEDOULE,43.2510907217,5.629046343280001,13
13115,ST PAUL LES DURANCE,43.6854814023,5.75372558845,13
13770,VENELLES,43.5928673895,5.49138381609,13
13116,VERNEGUES,43.6841394366,5.18825526479,13
13005,MARSEILLE 05,43.292806195299995,5.3975770959,13
13012,MARSEILLE 12,43.307768367799994,5.43991567678,13
14400,ARGANCHY,49.2299804943,-0.731623390683,14
14350,BEAULIEU,48.9175422091,-0.8178945248289999,14
14440,BENY SUR MER,49.2906537032,-0.436236066881,14
14550,BLAINVILLE SUR ORNE,49.2281536645,-0.304322423176,14
14190,BRETTEVILLE LE RABET,49.0297158634,-0.258286160153,14
14130,COUDRAY RABUT,49.3036835114,0.180598886038,14
14780,LION SUR MER,49.3007695684,-0.333954811691,14
14920,MATHIEU,49.256233995600006,-0.366730572403,14
14260,LE MESNIL AUZOUF,48.9775747857,-0.735885885584,14
14270,OUEZY,49.0852774139,-0.103965705023,14
14160,PERIERS EN AUGE,49.2645646622,-0.094148558043,14
14310,ST LOUET SUR SEULLES,49.0957495313,-0.67799363475,14
14380,SEPT FRERES,48.8642009505,-1.04020263222,14
14540,TILLY LA CAMPAGNE,49.110275852200004,-0.310762827705,14
14117,TRACY SUR MER,49.33116185390001,-0.644633136548,14
15500,BONNAC,45.2099376788,3.1466086961900004,15
15140,DRUGEAC,45.1625110675,2.38866153977,15
15700,ESCORAILLES,45.1690574549,2.33215850964,15
15230,GOURDIEGES,44.9465137217,2.88202644949,15
15800,JOU SOUS MONJOU,44.940309470900004,2.66250496336,15
15260,NEUVEGLISE,44.9309902257,2.97942663368,15
15290,PERS,44.895157553599994,2.23053095463,15
15250,REILHAC,44.970066333199995,2.42282064857,15
15100,VEDRINES ST LOUP,45.0527660016,3.27223653153,15
16350,CHAMPAGNE MOUTON,45.993087673999995,0.412273153255,16
16300,CRITEUIL LA MAGDELEINE,45.5364679101,-0.2103850238,16
16200,JARNAC,45.6865355311,-0.164780604405,16
16560,JAULDES,45.780826120200004,0.250693934038,16
16270,ROUMAZIERES LOUBERT,45.9100102437,0.5731216574979999,16
16620,MONTBOYER,45.331515831400004,0.0690097423513,16
16140,ORADOUR,45.9118627713,-0.0373971324151,16
16360,REIGNAC,45.4250019229,-0.174457411531,16
16250,ST LEGER,45.4552396012,0.0450762216981,16
16370,ST SULPICE DE COGNAC,45.759047836899995,-0.409801090827,16
16260,LA TACHE,45.8701965185,0.362525662176,16
16170,VAUX ROUILLAC,45.741709377700005,-0.0897179678272,16
17770,BERCLOUX,45.83935232020001,-0.459046739442,17
17400,BIGNAY,45.9212951544,-0.601162350534,17
17270,BORESSE ET MARTRON,45.2732901399,-0.126873222783,17
17380,CHANTEMERLE SUR LA SOIE,45.9732176097,-0.644264493345,17
17150,CONSAC,45.4182495786,-0.588917528415,17
17620,LA GRIPPERIE ST SYMPHORIEN,45.7918128326,-0.952372788645,17
17130,MONTENDRE,45.2880726146,-0.387479585943,17
17490,NEUVICQ LE CHATEAU,45.81243807640001,-0.160919990251,17
17940,RIVEDOUX PLAGE,46.159061213,-1.28302289715,17
17700,ST GEORGES DU BOIS,46.15005534189999,-0.7390613547830001,17
17430,ST HIPPOLYTE,45.9198703097,-0.905117939333,17
17230,ST OUEN D AUNIS,46.2295901157,-1.03191615683,17
17370,ST TROJAN LES BAINS,45.8319189499,-1.22713007046,17
17350,TAILLEBOURG,45.8452927158,-0.635939473122,17
17160,LES TOUCHES DE PERIGNY,45.9076315101,-0.26562144891999995,17
18350,CHARLY,46.90230259689999,2.76293801009,18
18700,OIZON,47.4531780432,2.51260180785,18
18200,LA PERCHE,46.6330688475,2.57380750974,18
18340,ST JUST,46.9879440291,2.50186876753,18
18140,ST MARTIN DES CHAMPS,47.173174971,2.93500889323,18
18390,ST MICHEL DE VOLANGIS,47.1432035311,2.4814369971200003,18
19260,AFFIEUX,45.50796260439999,1.76751292983,19
19190,ALBIGNAC,45.147448938000004,1.67744680624,19
19230,BEYSSAC,45.368379997,1.41904693308,19
19310,BRIGNAC LA PLAINE,45.17692084270001,1.33285501672,19
19600,CHASTEAUX,45.0828146271,1.4674887632700002,19
19510,LAMONGERIE,45.540833083,1.58011081843,19
19160,NEUVIC,45.3714171238,2.25865560062,19
19170,ST HILAIRE LES COURBES,45.5983709539,1.82144682815,19
19290,ST SETIERS,45.696753232,2.1173595487,19
19800,SARRAN,45.4121016966,1.93125887963,19
21700,AGENCOURT,47.1250474303,4.98564114053,21
21450,AMPILLY LES BORDES,47.6389194024,4.626988155619999,21
21120,AVELANGES,47.5873364734,5.030607198869999,21
21330,BOUIX,47.8995552729,4.4682965536,21
21290,CHAMBAIN,47.7950502005,4.91900088796,21
21310,DAMPIERRE ET FLEE,47.48025299060001,5.3522275425800006,21
21250,GLANON,47.0397116967,5.10712051482,21
21340,JOURS EN VAUX,47.038731041400005,4.59082588585,21
21130,LABERGEMENT LES AUXONNE,47.159395302200004,5.37863306845,21
21320,MACONGE,47.2256941351,4.577930289969999,21
21610,ORAIN,47.610226501199996,5.43501562658,21
21270,PONTAILLER SUR SAONE,47.3015930017,5.412282371159999,21
21410,PRALON,47.310493405699994,4.77503055215,21
21220,SEMEZANGES,47.2155736002,4.85104991117,21
21530,SINCEY LES ROUVRAY,47.4334510862,4.13103171651,21
21490,VAROIS ET CHAIGNOT,47.3554476666,5.1255645784,21
21370,VELARS SUR OUCHE,47.3186399344,4.90983945871,21
21390,VIC SOUS THIL,47.367014165600004,4.31767568757,21
22140,CAVAN,48.682764400699995,-3.35255264768,22
22250,EREAC,48.2743206835,-2.34355511126,22
22150,LANGAST,48.2837507892,-2.65609713563,22
22230,LAURENAN,48.214928975,-2.51844644739,22
22160,MAEL PESTIVIEN,48.4041439455,-3.29047753101,22
22570,PLELAUFF,48.19840758270001,-3.20337969883,22
22640,PLESTAN,48.4145560996,-2.44084892144,22
22450,POMMERIT JAUDY,48.7243391137,-3.24215851402,22
22330,ST JACUT DU MENE,48.27815823939999,-2.48623226273,22
22600,ST MAUDAN,48.111412567799995,-2.76769637126,22
22420,LE VIEUX MARCHE,48.6138736839,-3.4381674063800003,22
23210,AUGERES,46.0799619042,1.72763541074,23
23160,BAZELAT,46.350235810200004,1.53198134056,23
23480,LE DONZEIL,46.03538708,1.98532939253,23
23270,JALESCHES,46.2952982934,2.08236208756,23
23700,LES MARS,45.9954123132,2.49152199993,23
23260,ST MAURICE PRES CROCQ,45.8576074833,2.31542471203,23
23240,ST PRIEST LA PLAINE,46.2038557137,1.6315718964,23
23150,ST YRIEIX LES BOIS,46.0936669043,1.95720229248,23
24220,BERBIGUIERES,44.8394794581,1.04517998895,24
24590,BORREZE,44.9746545829,1.39100783698,24
24530,CANTILLAC,45.4000368216,0.643672265068,24
24320,LA CHAPELLE MONTABOURLET,45.394949122,0.457653171852,24
24640,CUBJAC,45.2253686677,0.939009779749,24
24330,EYLIAC,45.15500536890001,0.8557180973690001,24
24620,MANAURIE,44.962773498599994,0.988296013654,24
24750,MARSANEIX,45.0905756509,0.7790227468790001,24
24150,MAUZAC ET GRAND CASTANG,44.8823545617,0.7803453814519999,24
24700,MENESPLET,45.0036275997,0.10542960424,24
24290,MONTIGNAC,45.0627368774,1.15422675286,24
24800,ST MARTIN DE FRESSENGEAS,45.453371590799996,0.841754032741,24
24470,ST PARDOUX LA RIVIERE,45.5030521403,0.7480770992739999,24
24350,ST VICTOR,45.2628084047,0.442634663994,24
24540,SOULAURES,44.6413390052,0.914860213402,24
24600,VANXAINS,45.2121494971,0.28978883887,24
24360,VARAIGNES,45.610863698900005,0.5303004945040001,24
24380,VEYRINES DE VERGT,44.9902399091,0.7732134964399999,24
25750,ARCEY,47.519491443199996,6.65186946515,25
25720,ARGUEL,47.1842585224,6.00851020634,25
25320,BYANS SUR DOUBS,47.112977342600004,5.847439038689999,25
25640,FLAGEY RIGNEY,47.414395114099996,6.22003091799,25
25390,FUANS,47.1275313249,6.59080450829,25
25360,GONSANS,47.2264643937,6.29743977089,25
25440,GOUX SOUS LANDET,47.0782912931,5.93334206195,25
25580,GUYANS DURNES,47.1294465972,6.24421111235,25
25170,LAVERNAY,47.2443013496,5.8188261938400005,25
25260,LONGEVELLE SUR DOUBS,47.45976022479999,6.64960735527,25
25600,NOMMAY,47.539575577200004,6.8469876667400005,25
25470,LES PLAINS ET GRANDS ESSARTS,47.3035920869,6.89839278467,25
25160,LA PLANEE,46.842232933599995,6.27289248045,25
25110,PONT LES MOULINS,47.325697923999996,6.3665090598399985,25
25330,SILLEY AMANCEY,47.032502253500006,6.1370455148300005,25
26560,BALLONS,44.2517233325,5.644035564119999,26
26240,BEAUSEMBLANT,45.212433740200005,4.84068109312,26
26290,LES GRANGES GONTARDES,44.4276255565,4.75667290767,26
26310,LESCHES EN DIOIS,44.593663707299996,5.51737877593,26
26770,LE PEGUE,44.4443252877,5.06911053601,26
26380,PEYRINS,45.099856707200004,5.04564040404,26
26170,PIERRELONGUE,44.249551061800005,5.21417355869,26
26450,PUY ST MARTIN,44.6239658602,4.971709500709999,26
26330,ST MARTIN D AOUT,45.2222381407,4.98682933126,26
26110,VINSOBRES,44.335617613800004,5.0506163995,26
27630,BERTHENONVILLE,49.1836201834,1.64519618054,27
27520,BOURGTHEROULDE INFREVILLE,49.2995530921,0.876522751918,27
42360,ESSERTINES EN DONZY,45.7576341389,4.33837762975,42
42310,LA PACAUDIERE,46.1848662423,3.88005761466,42
42370,ST HAON LE VIEUX,46.07419932689999,3.90464894951,42
42330,ST MEDARD EN FOREZ,45.592348530500004,4.36215864374,42
42640,ST ROMAIN LA MOTTE,46.0816280349,3.9953263339,42
42800,TARTARAS,45.5540344541,4.66360649191,42
43270,ALLEGRE,45.1884321561,3.68990996082,43
43160,CISTRIERES,45.3298020864,3.6091137956,43
43370,CUSSAC SUR LOIRE,44.9849156994,3.87473452853,43
43800,MALREVERS,45.098764986599996,3.96694371079,43
43190,LE MAS DE TENCE,45.1189181156,4.36893159168,43
43520,MAZET ST VOY,45.04385116,4.2400374034800015,43
43510,OUIDES,44.9060432903,3.7403767146,43
44580,BOURGNEUF EN RETZ,47.0381472853,-1.92586734325,44
44390,CASSON,47.3920308092,-1.5557371880500002,44
44220,COUERON,47.2309985029,-1.72929002573,44
44130,FAY DE BRETAGNE,47.3905699563,-1.7953026194599997,44
44350,GUERANDE,47.3313320913,-2.41703658813,44
44260,LAVAU SUR LOIRE,47.320865436999995,-1.9583919645900003,44
44330,LE PALLET,47.1439366329,-1.34541765527,44
45480,BOISSEAUX,48.253772897299996,1.98567766927,45
45340,CHAMBON LA FORET,48.0490368743,2.28348190868,45
45400,CHANTEAU,47.9761797581,1.9646366293,45
45490,COURTEMPIERRE,48.0948306091,2.63504660906,45
45420,FAVERELLES,47.5870072341,2.9368798915599994,45
45210,GRISELLES,48.073583516899994,2.83901936313,45
45450,INGRANNES,47.9939802289,2.2247865408000003,45
45200,MONTARGIS,47.9988427684,2.73588922015,45
45510,NEUVY EN SULLIAS,47.7747351435,2.24319824191,45
45290,NOGENT SUR VERNISSON,47.8386989042,2.72939898012,45
45110,ST MARTIN D ABBAT,47.8813399374,2.30587611938,45
46120,LE BOURG,44.7061859872,1.90968231759,46
46140,CAILLAC,44.492381579799996,1.3469688573899998,46
46150,CRAYSSAC,44.51676547010001,1.32994493249,46
46600,MONTVALENT,44.874068433299996,1.6355576928600002,46
47190,AIGUILLON,44.3012876866,0.358229103443,47
47700,ANZEX,44.2862673358,0.170412994362,47
47150,GAVAUDUN,44.5686971966,0.893249631816,47
47250,GREZET CAVAGNAN,44.3800998821,0.125863668239,47
47160,MONHEURT,44.3328995113,0.305811875676,47
47500,MONTAYRAL,44.4683407612,0.983236181699,47
47420,POMPOGNE,44.2402054979,0.0580974233061,47
47130,PORT STE MARIE,44.2605042795,0.374453245526,47
47120,ST ASTIER,44.728351841599995,0.27199901218,47
47330,ST QUENTIN DU DROPT,44.6813277192,0.599100664337,47
47370,ST GEORGES,44.4415435954,0.927467853868,47
48000,BARJAC,44.5220189708,3.40925330342,48
48300,FONTANES,44.7806831391,3.780078456640001,48
48220,LE PONT DE MONTVERT,44.3742853816,3.76917997857,48
49320,BLAISON GOHIER,47.3908187654,-0.380019189582,49
49520,BOUILLE MENARD,47.738103295500004,-0.969364603994,49
49330,MIRE,47.762003193299996,-0.495000586199,49
49560,PASSAVANT SUR LAYON,47.100732538900004,-0.383422642271,49
49400,SOUZAY CHAMPIGNY,47.2170632945,-0.0207542806981,49
49350,LE THOUREIL,47.3700942455,-0.273268450752,49
50480,BOUTTEVILLE,49.3907224421,-1.25588804338,50
50110,DIGOSVILLE,49.6288821095,-1.52811592716,50
50800,FLEURY,48.8488921299,-1.26431862113,50
50450,GAVRAY,48.901866946999995,-1.32927187447,50
50190,GORGES,49.2644285169,-1.3898174551700002,50
50440,HERQUEVILLE,49.66736802770001,-1.88085144895,50
50540,ISIGNY LE BUAT,48.621496435299996,-1.18298649234,50
50630,OCTEVILLE L AVENEL,49.546805864300005,-1.3660886719499998,50
50210,OUVILLE,49.020748865,-1.36684952643,50
50140,ST CLEMENT RANCOUDRAY,48.6689629346,-0.8903844248649999,50
50330,TOCQUEVILLE,49.6711907146,-1.33613504172,50
50620,TRIBEHOU,49.2091331956,-1.24592963433,50
51700,ANTHENAY,49.139197233400004,3.7353380384699992,51
51320,BUSSY LETTREE,48.80307998600001,4.25136495939,51
51260,LA CELLE SOUS CHANTEMERLE,48.6055592946,3.68625302626,51
51120,CHICHEY,48.6829470295,3.75431338999,51
51240,DAMPIERRE SUR MOIVRE,48.8796364329,4.57485707749,51
51210,LE GAULT SOIGNY,48.810409919799994,3.60267965584,51
51290,GIGNY BUSSY,48.6098773154,4.58918617422,51
51150,PLIVOT,49.0112410452,4.07664321848,51
33760,SOULIGNAC,44.696592071800005,-0.288037993647,33
33550,TABANAC,44.724293814300005,-0.41077713329,33
33123,LE VERDON SUR MER,45.53856563260001,-1.07975440879,33
34670,BAILLARGUES,43.658105175699994,4.01030491176,34
34190,FERRIERES LES VERRERIES,43.867553720699995,3.80028962389,34
34110,FRONTIGNAN,43.4482458873,3.74923522416,34
34650,JONCELS,43.766219391599996,3.18310096799,34
34210,LA LIVINIERE,43.3372267899,2.63272340257,34
34530,MONTAGNAC,43.4745284586,3.5107421697800003,34
34730,PRADES LE LEZ,43.7072541597,3.86489213915,34
34230,PUILACHER,43.5667592874,3.50438177235,34
34610,ST GENIES DE VARENSAL,43.6879655757,3.00291654936,34
34220,ST PONS DE THOMIERES,43.4788345407,2.74852691953,34
35250,ANDOUILLE NEUVILLE,48.297572446800004,-1.5958926629,35
35130,AVAILLES SUR SEICHE,47.958041493500005,-1.1853971789,35
35320,LA BOSSE DE BRETAGNE,47.8682982413,-1.58824965901,35
35500,LA CHAPELLE ERBREE,48.140255126499994,-1.08972100382,35
35490,CHAUVIGNE,48.3766708439,-1.45244219408,35
42430,CHERIER,45.9681660896,3.88935883166,42
42140,MARCENOD,45.572819953199996,4.48177097511,42
42110,PONCINS,45.7272583786,4.15060346621,42
42660,ST GENEST MALIFAUX,45.3472458116,4.43132626452,42
42240,ST MAURICE EN GOURGOIS,45.40802548590001,4.18440068436,42
42270,ST PRIEST EN JAREZ,45.4752840967,4.37334466896,42
43000,AIGUILHE,45.0530693199,3.88524729137,43
43700,BLAVOZY,45.0625246612,3.97204508531,43
43320,FIX ST GENEYS,45.141514434499996,3.66508807208,43
43260,ST JULIEN CHAPTEUIL,45.0298500492,4.07958442261,43
43500,ST VICTOR SUR ARLANC,45.3365023071,3.77629585977,43
44150,ANETZ,47.3812710821,-1.0932910037,44
44740,BATZ SUR MER,47.2844487793,-2.474374647,44
44460,FEGREAC,47.5805909749,-2.02458187409,44
44270,LA MARNE,46.9913891791,-1.71864413598,44
44690,ST FIACRE SUR MAINE,47.143187739300004,-1.41565837757,44
44530,SEVERAC,47.554402668,-2.06655618594,44
44140,GENESTON,47.0596610494,-1.52602858693,44
45160,ARDON,47.7881590342,1.88281454667,45
45260,CHAILLY EN GATINAIS,47.936543644,2.5277446897,45
45320,FOUCHEROLLES,48.0971691274,3.0183707714,45
45430,MARDIE,47.8973215597,2.06871909957,45
45370,MEZIERES LEZ CLERY,47.810976564899995,1.81743017495,45
45470,TRAINOU,47.9652949917,2.10398859914,45
46270,CUZAC,44.5805664104,2.14397659301,46
46310,FRAYSSINET,44.6491132224,1.4857784453799998,46
46330,ST MARTIN LABOUVAL,44.4795975074,1.72861355188,46
46240,ST SAUVEUR LA VALLEE,44.6119744007,1.54386975014,46
46110,VAYRAC,44.945059701400005,1.69320675098,46
47290,BOUDY DE BEAUREGARD,44.5438485414,0.67747020369,47
47600,FIEUX,44.0999645384,0.42354302505,47
47510,FOULAYRONNES,44.25334035310001,0.636982515974,47
47310,LAMONTJOIE,44.070163871000005,0.537584596425,47
47800,MIRAMONT DE GUYENNE,44.583345002899996,0.356429133423,47
47380,ST ETIENNE DE FOUGERES,44.413992435,0.559008333546,47
48190,CUBIERETTES,44.4437323687,3.78750024039,48
48260,GRANDVALS,44.731358239799995,3.0520883766900004,48
48110,ST MARTIN DE LANSUSCLE,44.223064453199996,3.75067066931,48
48240,ST PRIVAT DE VALLONGUE,44.2854432826,3.82446827604,48
48210,LES VIGNES,44.26888327100001,3.25062860598,48
49220,ANDIGNE,47.665580756400004,-0.78946983748,49
49150,CHARTRENE,47.4887560979,-0.128275149468,49
49380,FAVERAYE MACHELLES,47.23183606510001,-0.507024600754,49
49540,LA FOSSE DE TIGNE,47.17569910939999,-0.4356754469100001,49
49120,LA JUMELLIERE,47.2885261096,-0.7293101851279999,49
49370,LE LOUROUX BECONNAIS,47.519040527,-0.90137845396,49
49160,ST PHILBERT DU PEUPLE,47.390836218100006,-0.0435917623377,49
50560,ANNEVILLE SUR MER,49.1205964204,-1.58682666285,50
50530,GENETS,48.6891667321,-1.47354012671,50
50430,LAULNE,49.2506372168,-1.4553734104299998,50
50240,ST AUBIN DE TERREGATTE,48.5703247813,-1.28722870629,50
50370,ST JEAN DU CORAIL DES BOIS,48.77213922470001,-1.20394577611,50
50640,STE MARIE DU BOIS,48.5516057967,-0.895614792599,50
50260,ST MARTIN LE HEBERT,49.5074042468,-1.61429795369,50
50170,SERVON,48.6028234324,-1.41113304944,50
50470,TOLLEVAST,49.579024597600004,-1.60738435371,50
51230,GOURGANCON,48.6847255926,4.02672471881,51
51360,PRUNAY,49.2141061333,4.17483063704,51
51460,ST ETIENNE AU TEMPLE,49.01996695840001,4.419049069,51
1340,ATTIGNAT,46.2861802203,5.1795233845,01
1290,CORMORANCHE SUR SAONE,46.2403530179,4.8276569593000005,01
1260,HOTONNES,46.0317412192,5.70267027388,01
1680,INNIMOND,45.7919647191,5.57389398559,01
1100,MARTIGNAT,46.2030768095,5.613840338049999,01
1460,NANTUA,46.153784540299995,5.61352793799,01
1600,STE EUPHEMIE,45.9669798317,4.7947818916900005,01
1330,STE OLIVE,46.0142006121,4.93624894982,01
1220,SAUVERNY,46.3126908233,6.110438364330001,01
1630,SERGY,46.2626243003,5.98914553194,01
1150,VILLEBOIS,45.8485624628,5.44711117486,01
2480,ARTEMPS,49.7617999337,3.19725095546,02
2490,ATTILLY,49.8554489068,3.15363305662,02
2380,BASSOLES AULERS,49.533281369899996,3.38492604839,02
2440,BENAY,49.755094123,3.30909898139,02
2880,BUCY LE LONG,49.388444718500004,3.39828602712,02
2210,CHOUY,49.2167334121,3.24708004454,02
2360,CUIRY LES IVIERS,49.7661751176,4.10397751712,02
2590,DOUCHY,49.7940905147,3.13035849025,02
2540,L EPINE AUX BOIS,48.89928040149999,3.44384138078,02
2420,LEVERGIES,49.9345380686,3.3118557921700003,02
2600,ST PIERRE AIGLE,49.3121621719,3.19602649155,02
3440,BUXIERES LES MINES,46.469834132299994,2.95493090181,03
3170,CHAMBLET,46.328387918599994,2.71331446339,03
3140,CHEZELLE,46.2129757558,3.1115482090599995,03
3600,MALICORNE,46.30726786020001,2.7702768473900004,03
3000,MOULINS,46.56246410560001,3.32662040221,03
3230,PARAY LE FRESIL,46.659897032299995,3.60383070741,03
3150,RONGERES,46.297617923100006,3.4520098944,03
3400,ST ENNEMOND,46.6808991637,3.40446807688,03
3430,VIEURE,46.5001110432,2.88222237454,03
4340,LA BREOLE,44.443466211899995,6.28924750363,04
5110,CLARET,44.3738118271,5.964676732259999,04
4200,ENTREPIERRES,44.1956537173,6.02224124199,04
4510,MALIJAI,44.0336660524,6.0504243737,04
4100,MANOSQUE,43.8354040831,5.7910665417299985,04
4150,REVEST DU BION,44.0940903498,5.540509385449999,04
5200,BARATIER,44.5049966967,6.5049421819700015,05
5400,CHABESTAN,44.47757559340001,5.78305319582,05
6750,CAILLE,43.7686953119,6.75666650268,06
6510,CONSEGUDES,43.8406957218,7.04503670887,06
6330,ROQUEFORT LES PINS,43.6741732535,7.0530127273000005,06
6730,ST ANDRE DE LA ROCHE,43.745876243999994,7.288713726469999,06
6380,SOSPEL,43.88446074149999,7.44794904955,06
7200,AUBENAS,44.6102127084,4.39638981424,07
7110,CHASSIERS,44.5660636279,4.30216796986,07
7570,DESAIGNES,44.992108781999995,4.50096602027,07
7380,MEYRAS,44.677562906000006,4.26001410237,07
7160,NONIERES,44.92770792060001,4.476893638430001,07
7300,PLATS,45.015647868500004,4.78034594921,07
7290,PREAUX,45.1362813279,4.65371648034,07
7560,LE ROUX,44.72111573350001,4.143335864680002,07
7360,ST FORTUNAT SUR EYRIEUX,44.834986851400004,4.689142715319999,07
7800,ST GEORGES LES BAINS,44.8592532012,4.809697149700001,07
7240,ST JULIEN LE ROUX,44.8675203578,4.67592482949,07
7210,ST LAGER BRESSAC,44.6916750931,4.71621277437,07
8450,MAISONCELLE ET VILLERS,49.5898272419,4.91848316067,08
8390,MONTGON,49.5124383754,4.71891434142,08
8150,SECHEVAL,49.859604641000004,4.6699542030400005,08
8270,WIGNICOURT,49.586756413,4.58208905132,08
9140,AULUS LES BAINS,42.7666138667,1.35664183654,09
9310,BOUAN,42.7934480459,1.6440276230000002,09
9300,LEYCHERT,42.946134999099996,1.7256860445599995,09
9110,ORGEIX,42.6754737936,1.87610097386,09
9420,RIMONT,42.9878381325,1.28379661881,09
9100,ST AMADOU,43.111295939099996,1.7149128938799998,09
9320,SOULAN,42.916291745900004,1.2434207,09
10160,AIX EN OTHE,48.1975745771,3.73632794113,10
10380,CHARNY LE BACHOT,48.538929725200006,3.95231242172,10
10140,MAISON DES CHAMPS,48.2437981025,4.57090591016,10
10330,PARS LES CHAVANGES,48.5173117634,4.50334630462,10
10800,ST LEGER PRES TROYES,48.2395381009,4.07306377461,10
10280,ST MESMIN,48.4369664082,3.89872863616,10
11700,AZILLE,43.2737058086,2.65746942689,11
11800,BOUILHONNAC,43.232345623,2.44410859417,11
11190,CAMPS SUR L AGLY,42.8638864709,2.41909357872,11
11200,CANET,43.2263270796,2.83123999016,11
11570,CAVANAC,43.1689835434,2.33479005955,11
11310,LACOMBE,43.4060884767,2.2401606377200003,11
11270,PLAVILLA,43.1414188507,1.90688009289,11
11490,PORTEL DES CORBIERES,43.051739623500005,2.9064611409,11
11170,STE EULALIE,43.2427203696,2.20565895321,11
11220,ST LAURENT DE LA CABRERISSE,43.083546024899995,2.71390822803,11
11290,VILLENEUVE LES MONTREAL,43.178928019,2.1128353311200003,11
12240,LA CAPELLE BLEYS,44.3037455115,2.17927140431,12
12220,ROUSSENNAC,44.44755235069999,2.25412829032,12
12420,VITRAC EN VIADENE,44.7926842483,2.83747865871,12
13510,EGUILLES,43.5711208794,5.3288575191600005,13
13690,GRAVESON,43.8539111696,4.76717369182,13
13610,LE PUY STE REPARADE,43.6518285649,5.43958389565,13
13740,LE ROVE,43.365337456199995,5.25292240431,13
13100,ST MARC JAUMEGARDE,43.5561849254,5.5220699379400005,13
13700,ST VICTORET,43.4142378837,5.25398700813,13
13880,VELAUX,43.52398545810001,5.2499642488300005,13
13011,MARSEILLE 11,43.2884471881,5.48381466229,13
14490,LA BAZOQUE,49.1535081338,-0.877591469858,14
14140,BELLOU,48.9877293651,0.223404883963,14
14710,BERNESQ,49.2737716158,-0.931449567611,14
14220,CAUMONT SUR ORNE,48.951038275100004,-0.470819178138,14
14320,CLINCHAMPS SUR ORNE,49.082790531099995,-0.403970928177,14
14620,CROCY,48.8770844881,-0.051768092066199985,14
14123,FLEURY SUR ORNE,49.144429234499995,-0.377619145275,14
14790,FONTAINE ETOUPEFOUR,49.1379993992,-0.454203302795,14
14230,NEUILLY LA FORET,49.271442803599996,-1.08918238998,14
14410,LA ROCQUE,48.8867364758,-0.674545735764,14
14480,ST GABRIEL BRECY,49.2707851378,-0.570933954743,14
14700,ST GERMAIN LANGOT,48.9223267272,-0.327291220475,14
14100,ST JEAN DE LIVET,49.093384673900005,0.242347762493,14
14940,TOUFFREVILLE,49.1993620809,-0.225024326729,14
14210,VACOGNES NEUILLY,49.085434168999996,-0.534237961822,14
15240,ANTIGNAC,45.3513149351,2.56147315935,15
15430,PAULHAC,45.0202868074,2.88735170231,15
15380,ST VINCENT DE SALERS,45.207487431800004,2.53894340125,15
15300,VIRARGUES,45.129311703199996,2.8984391834900003,15
15130,YTRAC,44.91613245479999,2.36598098395,15
16230,CELLETTES,45.86433360970001,0.145594673488,16
16320,CHAVENAT,45.4456350725,0.177878067553,16
16190,COURGEAC,45.3944594925,0.0818231361752,16
16340,L ISLE D ESPAGNAC,45.66386409770001,0.199231746573,16
16130,LIGNIERES SONNEVILLE,45.5660291672,-0.185136397799,16
16310,MAZEROLLES,45.740251316000005,0.5204133340070001,16
16390,NABINAUD,45.29334212720001,0.210125540377,16
16500,ORADOUR FANAIS,46.1149553879,0.782507477296,16
16450,ST CLAUD,45.8982985604,0.471600426637,16
16700,TAIZE AIZIE,46.0636731179,0.247464724639,16
16240,THEIL RABIER,46.0558979641,0.044130741302,16
17530,ARVERT,45.7467177587,-1.1230341867799998,17
17470,AULNAY,46.020337741700004,-0.348095789107,17
17800,BELLUIRE,45.5301565729,-0.55598529375,17
17600,CORME ECLUSE,45.6322589932,-0.8640258187279999,17
17120,EPARGNES,45.545721260200004,-0.795992154585,17
17810,NIEUL LES SAINTES,45.754116232799994,-0.7452914068009999,17
17260,ST ANDRE DE LIDON,45.583333781499995,-0.75733412108,17
17190,ST GEORGES D OLERON,45.976246555299994,-1.32432969206,17
17520,ST MAIGRIN,45.415202437299996,-0.278686157018,17
17330,ST SEVERIN SUR BOUTONNE,46.089265514,-0.428552923889,17
17460,TESSON,45.631962378800004,-0.656221839044,17
17500,VILLEXAVIER,45.3786120866,-0.439687126824,17
18300,BUE,47.3103309784,2.79357015319,18
18130,LANTAN,46.904742014899995,2.66151003852,18
18290,SAUGY,46.967747214300005,2.11337504999,18
18110,VIGNOUX SOUS LES AIX,47.183661209899995,2.46965607598,18
18260,VILLEGENON,47.417583440600005,2.59936995832,18
19370,CHAMBERET,45.60250124979999,1.7195108033200002,19
19140,ESPARTIGNAC,45.3992793069,1.5950172659,19
19210,LUBERSAC,45.454027392,1.40027554352,19
19330,ST GERMAIN LES VERGNES,45.2671975982,1.62099868397,19
19360,VENARSAL,45.195206436499994,1.6168647660799995,19
21510,BEAUNOTTE,47.6813180742,4.716241065899999,21
21110,BESSEY LES CITEAUX,47.1451368647,5.14759031997,21
21440,BLIGNY LE SEC,47.44834905020001,4.74031700396,21
21230,CHAMPIGNOLLES,47.0511019463,4.56775348817,21
21260,CHAZEUIL,47.5584131204,5.28562266214,21
21190,CORCELLES LES ARTS,46.9450397158,4.79678522994,21
21500,CREPAND,47.6070603908,4.31019985069,21
21170,ESBARRES,47.091069454300005,5.198246639280001,21
21150,HAUTEROCHE,47.488490177399996,4.57055360819,21
21460,JEUX LES BARD,47.5318872622,4.25532260801,21
21210,JUILLENAY,47.36137285109999,4.2721084078199985,21
21350,MASSINGY LES VITTEAUX,47.395705764,4.59045021974,21
21200,MONTAGNY LES BEAUNE,46.98492002770001,4.8539733561,21
21360,MONTCEAU ET ECHARNANT,47.0609045646,4.6666655237,21
21140,ST EUPHRONE,47.46684640149999,4.3918115248300005,21
21550,LADOIX SERRIGNY,47.0628547875,4.91151199048,21
22210,LA CHEZE,48.134630881099994,-2.66260913976,22
22130,CREHEN,48.5403697104,-2.19064428046,22
22630,EVRAN,48.3848559678,-1.97961537709,22
22290,LE FAOUET,48.678886274300005,-3.07342665968,22
22100,LEHON,48.4386870664,-2.05362352252,22
22340,LE MOUSTOIR,48.2739501884,-3.4915260647099995,22
22530,MUR DE BRETAGNE,48.1957524474,-2.9837108711,22
22700,PERROS GUIREC,48.8094393417,-3.4676922789099995,22
22740,PLEUMEUR GAUTIER,48.8001346688,-3.15198645075,22
22110,PLOUNEVEZ QUINTIN,48.28534246939999,-3.2407820928400004,22
22720,ST FIACRE,48.45534828939999,-3.05227274488,22
22510,ST TRIMOEL,48.393304198500005,-2.5412449971,22
22560,TREBEURDEN,48.770777594399995,-3.55769238632,22
22200,TREGONNEAU,48.6141977359,-3.1629306256200005,22
22350,YVIGNAC LA TOUR,48.348852730699996,-2.17094067762,22
23600,BOUSSAC BOURG,46.3680932326,2.21561135415,23
23800,COLONDANNES,46.288107572,1.61692069958,23
23500,CROZE,45.824406215299994,2.16780878793,23
23140,JARNAGES,46.190155611499996,2.0803969544,23
23250,LA POUGE,45.9737443345,1.9401973026,23
23000,LA SAUNIERE,46.1285230367,1.94133792755,23
23460,ST MARTIN CHATEAU,45.8498336813,1.81176141675,23
24160,ANLHIAC,45.3214606994,1.12082705606,24
24440,BEAUMONT DU PERIGORD,44.773801258,0.75409629331,24
24170,CARVES,44.7854908288,1.06057699804,24
24410,FESTALEMPS,45.2174671633,0.24226835854000006,24
24310,PAUSSAC ET ST VIVIEN,45.3463059633,0.539590809201,24
24200,PROISSANS,44.9314130626,1.24431944303,24
24250,ST CYBRANET,44.7804732346,1.1587393695,24
24400,ST ETIENNE DE PUYCORBIER,45.092927598900005,0.323452712792,24
24260,ST FELIX DE REILLAC ET MORTEMART,45.0147855996,0.8915260018700001,24
24300,ST MARTIN LE PIN,45.552556707,0.6258689115070001,24
24230,ST MICHEL DE MONTAIGNE,44.879045176700004,0.0249387583377,24
24390,TEMPLE LAGUYON,45.231240965,1.0972945590899998,24
25190,BIEF,47.3224089924,6.7749858003400005,25
25340,CHAUX LES CLERVAL,47.37158815300001,6.51577154602,25
25300,LA CLUSE ET MIJOUX,46.868347129300005,6.39291993544,25
25490,DAMPIERRE LES BOIS,47.507476040200004,6.915646000739999,25
25410,FERRIERES LES BOIS,47.209123290200004,5.802703825680001,25
25510,GRANDFONTAINE SUR CREUSE,47.1838098895,6.45611835105,25
25370,LES HOPITAUX NEUFS,46.7853001951,6.391309174419999,25
25930,LODS,47.049470918699996,6.25575647951,25
25530,OUVANS,47.276121898999996,6.48979491245,25
25620,TARCENAY,47.1661327751,6.105328512180001,25
25800,VALDAHON,47.1633469819,6.332262544650002,25
25380,VAUCLUSOTTE,47.2774412762,6.73416218466,25
26120,COMBOVIN,44.8585100129,5.10771313744,26
26270,LORIOL SUR DROME,44.7499742267,4.80530615488,26
26620,LUS LA CROIX HAUTE,44.682803137700006,5.7231612201600015,26
26760,MONTELEGER,44.8558469973,4.927846849280001,26
26460,MORNANS,44.6208884748,5.13309651112,26
26150,ROMEYER,44.7925236938,5.436662524119999,26
27800,ACLOU,49.1655546426,0.698293841066,27
27220,LES AUTHIEUX,48.898268785,1.2343859572700002,27
27640,BREUILPONT,48.9649279458,1.4394948817299995,27
27300,CAORCHES ST NICOLAS,49.0782233141,0.547592654037,27
27110,CESSEVILLE,49.1795942946,0.976416349214,27
72400,LA CHAPELLE DU BOIS,48.227002131300004,0.583491271516,72
72540,CHEMIRE EN CHARNIE,48.0532260742,-0.202932424744,72
72190,COULAINES,48.0332041252,0.211301706062,72
72610,GRANDCHAMP,48.3069428443,0.181392823725,72
72140,PARENNES,48.1171850426,-0.185567402147,72
72120,ST GERVAIS DE VIC,47.882312592,0.733164783668,72
72370,SOULITRE,48.0223482346,0.441300492215,72
73220,ARGENTINE,45.4893893107,6.33336554074,73
73210,BELLENTRE,45.5369181938,6.73281135671,73
73700,BOURG ST MAURICE,45.6647980545,6.766379039069999,73
73390,CHAMP LAURENT,45.5074933777,6.20853295293,73
73170,LA CHAPELLE ST MARTIN,45.649901686899995,5.753924606109999,73
73630,DOUCY EN BAUGES,45.6961895971,6.176412770730001,73
73350,FEISSONS SUR SALINS,45.4725612545,6.56127729089,73
73200,GRIGNON,45.6421717118,6.38372169869,73
73240,ROCHEFORT,45.5807306821,5.713513368359998,73
73260,ST OYEN,45.5085525876,6.47859475576,73
73270,VILLARD SUR DORON,45.727682271999996,6.51866371768,73
73300,VILLARGONDRAN,45.252736059899995,6.3790342434200005,73
74800,CORNIER,46.0897408945,6.29193924963,74
74150,LORNAY,45.9107999793,5.88954497297,74
74930,PERS JUSSY,46.1018355447,6.25852776575,74
74340,SAMOENS,46.0878467821,6.743293614930002,74
74320,SEVRIER,45.8555012829,6.138063388990001,74
74740,SIXT FER A CHEVAL,46.0542010133,6.812325531719999,74
74200,THONON LES BAINS,46.370425804899995,6.48194336071,74
75013,PARIS 13,48.8287176845,2.36246822852,75
76550,AUBERMESNIL BEAUMAIS,49.847513728,1.12124254365,76
76190,BAONS LE COMTE,49.639081738,0.760973949866,76
76790,BENOUVILLE,49.717334021400006,0.246125602871,76
76590,BERTREVILLE ST OUEN,49.8123112354,1.04321401128,76
76480,BERVILLE SUR SEINE,49.4743258716,0.8948098418770001,76
76370,BRACQUEMONT,49.9396621525,1.14139180635,76
76220,BREMONTIER MERVAL,49.5143282668,1.6171922011000002,76
76740,CRASVILLE LA ROCQUEFORT,49.8041521575,0.877451277489,76
76210,GRUCHET LE VALASSE,49.5497174771,0.513926540518,76
76500,LA LONDE,49.323828876,0.920341905232,76
76860,LONGUEIL,49.8832005078,0.947742535975,76
76520,QUEVREVILLE LA POTERIE,49.354455162200004,1.18963435666,76
76760,ST MARTIN AUX ARBRES,49.650729501499995,0.8901637635009999,76
76560,LE TORP MESNIL,49.7257071059,0.905083939964,76
77630,BARBIZON,48.4485166396,2.60051335634,77
77115,BLANDY,48.560199123800004,2.7950108082800003,77
77760,CHEVRAINVILLIERS,48.2459789311,2.60246070694,77
77170,COUBERT,48.6782857887,2.7083859088200004,77
77560,COURCHAMP,48.6425226208,3.28982875028,77
77157,EVERLY,48.4602932041,3.2638422634,77
77320,JOUY SUR MORIN,48.7955034518,3.27252320756,77
77610,MARLES EN BRIE,48.7249445304,2.88847597866,77
77250,MORET SUR LOING,48.365092921000006,2.8117258584900005,77
77230,MOUSSY LE NEUF,49.0702568046,2.60754182712,77
77124,CHAUCONIN NEUFMONTIERS,48.9719332783,2.83158634864,77
77340,PONTAULT COMBAULT,48.7871411658,2.61407436985,77
77710,ST ANGE LE VIEL,48.2723686746,2.90471445471,77
77520,SIGY,48.47306126220001,3.16363962665,77
77200,TORCY,48.8532553496,2.65123227423,77
77440,VENDREST,49.0415084133,3.10843248735,77
78270,LIMETZ VILLEZ,49.0598121683,1.55067599473,78
78200,SOINDRES,48.9535424225,1.6716835066100002,78
79210,ARCAIS,46.301293206400004,-0.695370994677,79
79800,LA COUARDE,46.311279395,-0.143860718108,79
79390,LA FERRIERE EN PARTHENAY,46.6478583733,-0.0787535449945,79
79380,LA FORET SUR SEVRE,46.7587446345,-0.648000879918,79
79360,MARIGNY,46.19479923390001,-0.416618786711,79
79220,PAMPLIE,46.526703796499994,-0.439316862491,79
79120,ROM,46.3034951181,0.1238295004,79
79700,ST PIERRE DES ECHAUBROGNES,46.979741470200004,-0.7518991726019999,79
79160,VILLIERS EN PLAINE,46.4150506685,-0.536890888981,79
80210,ACHEUX EN VIMEU,50.0660366423,1.67027205864,80
80150,CANCHY,50.1871744967,1.87350289906,80
80620,DOMART EN PONTHIEU,50.075755731899996,2.12318895093,80
80230,LANCHERES,50.163006057,1.55355178497,80
80190,MORCHAIN,49.800314585600006,2.92316556793,80
80430,NEUVILLE COPPEGUEULE,49.856003312,1.7398139166799995,80
80680,SAINS EN AMIENOIS,49.8147147037,2.32407977472,80
80240,TEMPLEUX LE GUERARD,49.9633304017,3.14471423364,80
80670,WARGNIES,50.0364524864,2.25088888285,80
80170,WIENCOURT L EQUIPEE,49.840059378,2.60476090583,80
81400,BLAYE LES MINES,44.033065795,2.14278920127,81
81260,CASTELNAU DE BRASSAC,43.65787486520001,2.52758390349,81
81470,LACROISILLE,43.58053089,1.92863316637,81
81120,REALMONT,43.7799765873,2.19017910647,81
81490,ST SALVY DE LA BALME,43.6117421353,2.37969793328,81
82600,BEAUPUY,43.8187281696,1.11607060391,82
82200,MALAUSE,44.0899884213,0.971913032435,82
82300,ST VINCENT,44.1643134123,1.46636504185,82
82330,VERFEIL,44.1847529793,1.87464680477,82
82130,VILLEMADE,44.0801227297,1.2899145835,82
83330,LE BEAUSSET,43.206931555699995,5.82020086096,83
83570,CARCES,43.4690059217,6.176372734369999,83
83840,LA MARTRE,43.76358635,6.592695946980001,83
83910,POURRIERES,43.4938863602,5.74717711665,83
83480,PUGET SUR ARGENS,43.4717671252,6.68628195857,83
83560,ST JULIEN,43.6999613716,5.91499316614,83
83160,LA VALETTE DU VAR,43.149915204399996,5.99222538877,83
83670,VARAGES,43.595733250100004,5.94441099712,83
84850,CAMARET SUR AIGUES,44.1596814027,4.88410397503,84
84110,ROAIX,44.2551304462,5.01515147311,84
85320,BESSAY,46.539725386099995,-1.17028433093,85
85420,BOUILLE COURDAULT,46.384793244799994,-0.6849178157790001,85
85240,FAYMOREAU,46.5427361252,-0.6242713789459999,85
85670,GRAND LANDES,46.848328306300004,-1.6445300257799995,85
85600,LA GUYONNIERE,46.969145882700005,-1.25498183944,85
85340,L ILE D OLONNE,46.570163703,-1.7737502368,85
85130,LES LANDES GENUSSON,46.9663828627,-1.12900644447,85
85570,MARSAIS STE RADEGONDE,46.5380790745,-0.868868309437,85
85390,MOUILLERON EN PAREDS,46.6612700667,-0.8467842010709999,85
85210,LA REORTHE,46.611374893800004,-1.0488103655299998,85
85310,ST FLORENT DES BOIS,46.605637391,-1.3354497172,85
85140,ST MARTIN DES NOYERS,46.7239461187,-1.20379080965,85
86270,COUSSAY LES BOIS,46.813122270200004,0.7254670786249999,86
86420,DERCE,46.939332496800006,0.208681874617,86
86500,SAULGE,46.366733090699995,0.8658615791769999,86
86120,TERNAY,47.035178652700004,-0.0534363312967,86
86700,VAUX,46.28314867899999,0.236630023591,86
86190,VOUILLE,46.62150106,0.163409416409,86
87220,BOISSEUIL,45.76191148270001,1.32848172081,87
87400,LA GENEYTOUSE,45.7872366834,1.45422781567,87
87340,LA JONCHERE ST MAURICE,46.0045426024,1.4785890469999998,87
87280,LIMOGES,45.8542549589,1.2487579024,87
87300,PEYRAT DE BELLAC,46.1315030493,1.02033947545,87
87510,PEYRILHAC,45.9617192828,1.12081829671,87
87200,ST MARTIN DE JUSSAC,45.8608042276,0.943622213531,87
88210,BAN DE SAPT,48.3430851035,7.015665429260001,88
88700,BRU,48.353773286300004,6.6891785388,88
88300,CERTILLEUX,48.3176635605,5.73569532999,88
88000,DIGNONVILLE,48.2431130672,6.49905182011,88
88460,FAUCOMPIERRE,48.14027067439999,6.66392055704,88
88150,GIRMONT,48.2546126886,6.45242398651,88
88390,SANCHEY,48.166945866499994,6.368025856619999,88
88530,LE THOLY,48.0875038996,6.7389802554600005,88
89360,BUTTEAUX,47.9838665188,3.82197374039,89
89260,LA CHAPELLE SUR OREUSE,48.291821380100004,3.29933199653,89
89120,FONTENOUILLES,47.8828516887,3.03264987544,89
89350,GRANDCHAMP,47.8037064342,3.17190551759,89
89800,LICHERES PRES AIGREMONT,47.715913085299995,3.84254969498,89
89140,MICHERY,48.312237803100004,3.2455742632700004,89
89100,PARON,48.185239631099996,3.23953037436,89
89200,THORY,47.571024012799995,3.91643466826,89
89130,TOUCY,47.733560771899995,3.2937284900200003,89
89580,VALLAN,47.745255808500005,3.5414081859300004,89
89240,VILLEFARGEAU,47.788290654099995,3.48637705982,89
89320,VILLIERS LOUIS,48.19764337189999,3.40283565458,89
91720,BOIGNEVILLE,48.328168953500004,2.36609167603,91
91650,BREUX JOUY,48.554950151199996,2.16049670709,91
91630,CHEPTAINVILLE,48.5465841683,2.27416218366,91
91210,DRAVEIL,48.677841377200004,2.4219780186200004,91
91160,LONGJUMEAU,48.690048804499995,2.3024705671900003,91
91250,MORSANG SUR SEINE,48.5768153629,2.50087368249,91
91530,ST CHERON,48.5491975829,2.12662820406,91
92340,BOURG LA REINE,48.7799073627,2.31643010763,92
93100,MONTREUIL,48.8633175054,2.44816211857,93
94470,BOISSY ST LEGER,48.747035992200004,2.52528049019,94
94440,MAROLLES EN BRIE,48.739478061599996,2.5549133845500003,94
94800,VILLEJUIF,48.7928547268,2.36006103249,94
95270,BELLEFONTAINE,49.0925450079,2.46955814701,95
95870,BEZONS,48.9259810125,2.21133387765,95
97218,MACOUBA,,,
97229,LES TROIS ILETS,,,
97355,MACOURIA,,,
97351,MATOURY,,,
97429,PETITE ILE,,,
97490,ST DENIS,,,
97438,STE MARIE,,,
97680,MAMOUDZOU,,,
98704,FAAA,,,
98792,GAMBIER,,,
98769,MAKEMO,,,
98788,NUKUTAVAKE,,,
98735,TAPUTAPUATEA,,,
98746,UA POU,,,
98882,SARRAMEA,,,
51130,VERTUS,48.9081794912,3.97961201086,51
52500,ANROSEY,47.8449228993,5.660832287869999,52
52110,BLUMERAY,48.3542889175,4.86349451944,52
52700,BRIAUCOURT,48.20802548010001,5.19573843371,52
52150,DONCOURT SUR MEUSE,48.140541872,5.58464519798,52
52170,FONTAINES SUR MARNE,48.558532290900004,5.11565256465,52
52210,GIEY SUR AUJON,47.9059188991,5.055149032809999,52
52000,JONCHERY,48.1516102771,5.07446482114,52
52190,OCCEY,47.6040975571,5.27196740067,52
52160,ROUELLES,47.803278274200004,5.0879485638,52
52320,SONCOURT SUR MARNE,48.2487991823,5.091834409,52
53200,CHEMAZE,47.7785171054,-0.7662339867919999,53
53250,LE HAM,48.3736183022,-0.353133097864,53
53390,LA ROUAUDIERE,47.8380947101,-1.18557298037,53
53470,SACE,48.1800800197,-0.699374640093,53
53290,ST LOUP DU DORAT,47.8857485976,-0.423854225277,53
53300,ST LOUP DU GAST,48.3871907627,-0.5844465593379999,53
54112,ALLAMPS,48.548374875,5.81464831473,54
54200,ANDILLY,48.7670812602,5.88801466262,54
54540,BADONVILLER,48.494920632299994,6.910105970449999,54
54290,BAINVILLE AUX MIROIRS,48.4363808241,6.2833736901,54
54150,LES BAROCHES,49.229921661000006,5.88812607827,54
54115,BATTIGNY,48.443907941800006,5.98482135856,54
54280,CHAMPENOUX,48.7344291014,6.35304245931,54
54330,FORCELLES ST GORGON,48.45687195,6.103829875140001,54
54120,GELACOURT,48.47620223569999,6.7317160427100005,54
54370,HOEVILLE,48.716562789300006,6.43301011258,54
54470,JAULNY,48.9667717545,5.89278620377,54
54720,LAIX,49.4515411349,5.77943414827,54
54960,MERCY LE BAS,49.385419128900004,5.75848432242,54
54580,MOINEVILLE,49.197014093199996,5.948362542509999,54
54700,MOUSSON,48.9108966733,6.09255325215,54
54730,VILLE HOUDLEMONT,49.5391091104,5.6572041120800005,54
54760,VILLERS LES MOIVRONS,48.81444657350001,6.25119600136,54
55120,AUTRECOURT SUR AIRE,49.031056488000004,5.13983417646,55
55100,BEAUMONT EN VERDUNOIS,49.26213028300001,5.4098209748500015,55
55270,CIERGES SOUS MONTFAUCON,49.2994621445,5.0933177343,55
55260,COURCELLES EN BARROIS,48.8264091372,5.42728737864,55
55110,DANNEVOUX,49.3046381081,5.22673976949,55
55600,FLASSIGNY,49.47621512520001,5.437426070780001,55
55320,GENICOURT SUR MEUSE,49.0415387246,5.44302652928,55
55700,INOR,49.5549325347,5.16437044612,55
55400,MORANVILLE,49.1788762926,5.540506379380001,55
55500,NANT LE PETIT,48.6517674687,5.22623977721,55
55190,PAGNY SUR MEUSE,48.68922083970001,5.73298818244,55
55160,PAREID,49.123800495699996,5.70672304736,55
55290,RIBEAUCOURT,48.544175090799996,5.35669405147,55
55140,ST GERMAIN SUR MEUSE,48.6480131272,5.723504903709999,55
56190,ARZAL,47.519901266000005,-2.40478493652,56
56400,AURAY,47.6677057368,-2.9904111222500003,56
56430,MAURON,48.0820059121,-2.30432452661,56
56340,PLOUHARNEL,47.59968600720001,-3.12263540651,56
56420,PLUMELEC,47.825723025500004,-2.62344380142,56
56110,LE SAINT,48.0965409362,-3.5652314791000004,56
56140,ST ABRAHAM,47.8475889201,-2.40640451407,56
56480,STE BRIGITTE,48.1771391346,-3.11020493167,56
56730,ST GILDAS DE RHUYS,47.5128140114,-2.83281521373,56
56910,ST NICOLAS DU TERTRE,47.796054142399996,-2.21778311468,56
57580,BAUDRECOURT,48.9603224035,6.45869419532,57
57220,BIONVILLE SUR NIED,49.1118093676,6.47964260905,57
57655,BOULANGE,49.3827399513,5.95209711737,57
57810,BOURDONNAY,48.7246400805,6.73626264674,57
57400,BUHL LORRAINE,48.7190027122,7.07430215859,57
57630,HARAUCOURT SUR SEILLE,48.808497234899995,6.60564803108,57
57490,L HOPITAL,49.1574029891,6.73265965456,57
57920,KEDANGE SUR CANNER,49.3109453426,6.343428905,57
57155,MARLY,49.0658509672,6.15231485365,57
57660,MAXSTADT,49.046355089399995,6.804058024580001,57
57420,POURNOY LA CHETIVE,49.01890619970001,6.153887274319999,57
57645,RETONFEY,49.13323264970001,6.31630111446,57
57720,ROLBING,49.1723630415,7.422102860680001,57
57320,SCHWERDORFF,49.372590106800004,6.572109772919999,57
57340,VALLERANGE,48.950261198199996,6.68677832719,57
57730,VALMONT,49.0843033887,6.70254231837,57
58330,BONA,47.064831148100005,3.42596350946,58
58220,DONZY,47.3800225966,3.11365486135,58
58800,MAGNY LORMES,47.2909908741,3.74767215343,58
58180,MARZY,46.9838677741,3.0926104206,58
58150,ST ANDELAIN,47.3106333891,2.98007868063,58
58190,ST DIDIER,47.347898003500006,3.62016798803,58
58110,TAMNAY EN BAZOIS,47.054138254899996,3.72330912305,58
59112,ANNOEULLIN,50.5265153703,2.9275362947900003,59
59950,AUBY,50.4142959158,3.06115822735,59
59300,AULNOY LEZ VALENCIENNES,50.326154504399994,3.5376426428699994,59
59222,BOUSIES,50.151363705,3.61511089589,59
59780,CAMPHIN EN PEVELE,50.5923766053,3.25767476267,59
59620,ECUELIN,50.1924531151,3.89604149257,59
59400,ESTOURMEL,50.1518286613,3.3213251558700003,59
59680,FERRIERE LA PETITE,50.240398866599996,4.0273976659800015,59
59320,HALLENNES LEZ HAUBOURDIN,50.61204097939999,2.95454404454,59
59138,HARGNIES,50.2577740991,3.84173807004,59
59121,HAULCHIN,50.313306966300004,3.42273486523,59
59740,HESTRUD,50.2030928421,4.1397840826199985,59
59122,KILLEM,50.9575597067,2.55978032528,59
59173,LYNDE,50.7186012441,2.43465079994,59
59700,MARCQ EN BAROEUL,50.675334855699994,3.10093583816,59
59172,ROEULX,50.3127229733,3.32813430468,59
59286,ROOST WARENDIN,50.41478697350001,3.10349816509,59
59360,ST BENIN,50.0760031859,3.5318789033,59
59113,SECLIN,50.5462914067,3.03440410368,59
59158,THUN ST AMAND,50.484709807899996,3.44835522897,59
59870,TILLOY LEZ MARCHIENNES,50.4251780134,3.32276515057,59
59152,TRESSIN,50.6172932924,3.18934892273,59
59227,VERCHAIN MAUGRE,50.2661390084,3.4632047849900003,59
59232,VIEUX BERQUIN,50.693250471499994,2.62068917125,59
59231,VILLERS PLOUICH,50.078934535500004,3.13659590623,59
60390,BEAUMONT LES NONAINS,49.3254912942,2.00355965035,60
60400,BEAURAINS LES NOYON,49.60659807840001,2.9753206205,60
60220,BOUTAVENT,49.6384622091,1.7532915242900002,60
60170,CAMBRONNE LES RIBECOURT,49.506209206499996,2.89807134548,60
60480,CAMPREMY,49.563803101800005,2.32696331161,60
60420,COIVREL,49.5554230001,2.55108811608,60
60120,LE CROCQ,49.62089252689999,2.18869008805,60
60350,CROUTOY,49.3772107204,3.03575847593,60
60210,ELENCOURT,49.6931893721,1.89535227719,60
60950,ERMENONVILLE,49.1256725288,2.69642408679,60
60240,FAY LES ETANGS,49.2495116378,1.94467191321,60
60650,LHERAULE,49.488288504399996,1.93093330345,60
60190,MONTMARTIN,49.4662692846,2.6975055092799995,60
60430,PONCHON,49.3480922542,2.18400439052,60
60620,REEZ FOSSE MARTIN,49.091275835699996,2.9236249457700003,60
61150,AVOINE,48.6713596683,-0.0993268987581,61
61450,BANVOU,48.6639903117,-0.556894831544,61
61550,BOCQUENCE,48.8344610006,0.456392249739,61
61560,BOECE,48.5149253316,0.454540443789,61
61500,CHAILLOUE,48.65689117260001,0.196513358702,61
61190,CHAMPS,48.58676398,0.5574520437520001,61
61130,LA CHAPELLE SOUEF,48.317702813400004,0.588455492814,61
61390,FERRIERES LA VERRERIE,48.652627089300005,0.376818250873,61
61110,MAISON MAUGIS,48.4606574349,0.68968762991,61
61160,MERRI,48.8496427055,-0.0480442687765,61
61360,MONTGAUDRY,48.409293886,0.397216476746,61
61200,OCCAGNES,48.7813226676,-0.0658264012764,61
61120,ROIVILLE,48.8801395888,0.236531994875,61
61170,ST LEGER SUR SARTHE,48.495044338999996,0.316782029384,61
61320,STE MARGUERITE DE CARROUGES,48.5937651303,-0.151429689315,61
61100,STE OPPORTUNE,48.7360455773,-0.411243624023,61
61410,ST OUEN LE BRISOULT,48.5091783781,-0.350727640894,61
61140,BAGNOLES DE L ORNE,48.555658520200005,-0.419510749596,61
62650,ALETTE,50.524381531,1.85083000523,62
62390,AUBROMETZ,50.3037964831,2.17623474177,62
62560,AVROULT,50.6320023279,2.14547609845,62
62137,COULOGNE,50.916752798999994,1.88656499297,62
62149,CUINCHY,50.5192106267,2.7465165921599994,62
62129,ECQUES,50.6751011115,2.28909761313,62
62310,FRUGES,50.513011128100004,2.1230697319,62
62111,HEBUTERNE,50.118045268500005,2.64625006269,62
62250,LEUBRINGHEN,50.853723675,1.73268337788,62
62120,LINGHEM,50.5897222044,2.37264094171,62
62380,LUMBRES,50.705094418,2.11706482499,62
62134,MONCHY CAYEUX,50.4344363807,2.28088263768,62
62890,NORT LEULINGHEM,50.7959979295,2.08880938982,62
62860,QUEANT,50.1765937301,2.9851802753099994,62
62490,QUIERY LA MOTTE,50.3662007463,2.98347505624,62
62150,REBREUVE RANCHICOURT,50.4315349497,2.54883254933,62
62770,ROLLANCOURT,50.4117012202,2.1259936792,62
62130,SIRACOURT,50.3707474842,2.26790984038,62
62156,VIS EN ARTOIS,50.245875467,2.93609831247,62
62360,LA CAPELLE LES BOULOGNE,50.7313010692,1.71597979438,62
63420,APCHAT,45.37384044229999,3.14813755867,63
63220,BEURIERES,45.431609496499995,3.778656979780001,63
63490,BROUSSE,45.6003729958,3.46386697811,63
63290,CHATELDON,45.9733956022,3.55296275066,63
63500,FLAT,45.571763441899996,3.294046648,63
63270,LAPS,45.671295711400006,3.26837509243,63
63690,LARODDE,45.5243871141,2.55410927855,63
63940,MARSAC EN LIVRADOIS,45.480440976800004,3.72202018487,63
63430,LES MARTRES D ARTIERE,45.829827514799995,3.26055281188,63
63730,MIREFLEURS,45.6909304728,3.22523866728,63
63380,PONTAUMUR,45.860128341599996,2.68239147553,63
63800,LA ROCHE NOIRE,45.7136067003,3.22320975881,63
63760,ST SULPICE,45.6470287269,2.6197535104,63
64450,ARGELOS,43.4489771911,-0.346464744941,64
64350,ARROSES,43.5470586711,-0.111198183696,64
64190,AUDAUX,43.37259834140001,-0.7799017394969999,64
64330,AYDIE,43.57076132270001,-0.113447741678,64
64800,BORDERES,43.20472263439999,-0.212865402876,64
64470,ETCHEBAR,43.066998551400005,-0.903672606774,64
64220,GAMARTHE,43.1951524207,-1.13016306002,64
64260,GERE BELESTEN,43.0216111241,-0.446673264564,64
64400,GERONCE,43.222147965699996,-0.710166887554,64
64300,MASLACQ,43.42655357,-0.6989400134360001,64
64121,MONTARDON,43.3651274671,-0.35046748696,64
64510,NARCASTET,43.2417207618,-0.32056723288000005,64
64160,ST JAMMES,43.361493053100006,-0.253048695967,64
64500,ST JEAN DE LUZ,43.39478868729999,-1.6309902157299998,64
65370,ANLA,43.005369879300005,0.5914715491260001,65
65460,BAZET,43.2907000893,0.07552012536889999,65
65220,BUGARD,43.2552558483,0.311328173985,65
65800,CHIS,43.298262816000005,0.114509982823,65
65250,HECHES,42.99989960470001,0.373888635101,65
65700,LAFITOLE,43.4493703401,0.0766668449898,65
65300,LANNEMEZAN,43.117063337,0.39353033034,65
65100,LEZIGNAN,43.098874846,-0.00717400670291,65
65670,MONLEON MAGNOAC,43.236183736099996,0.517312861957,65
65200,MONTGAILLARD,43.1232297746,0.111048955498,65
65240,PAILHAC,42.911922384,0.367540499398,65
65190,PEYRAUBE,43.2027242549,0.255934590964,65
65350,PEYRIGUERE,43.2524090816,0.261598345068,65
65140,SARRIAC BIGORRE,43.3885175976,0.117612400735,65
65260,VILLELONGUE,42.94230298,-0.0171051666121,65
65150,CANTAOUS,43.101919218999996,0.445956061466,65
66360,AYGUATEBIA TALAU,42.5529817606,2.18299990224,66
66820,CASTEIL,42.5057155606,2.4200306299000003,66
66130,CORBERE LES CABANES,42.659851515,2.6824784207,66
66500,NOHEDES,42.6287938288,2.26078366597,66
66380,PIA,42.7487012331,2.9149738105900003,66
67204,ACHENHEIM,48.58046231,7.625406052969999,67
67500,BATZENDORF,48.7820553601,7.70964609521,67
67330,BOSSELSHAUSEN,48.8061717193,7.50878423117,67
67130,LA BROQUE,48.4601655449,7.172830255039999,67
67510,CLIMBACH,49.0157843115,7.85030833791,67
67770,DALHUNDEN,48.771169811899995,7.991590835089999,67
67360,DURRENBACH,48.8992737853,7.76279300097,67
67250,HOFFEN,48.9330135449,7.932767029419999,67
67207,NIEDERHAUSBERGEN,48.6233090076,7.705157488089999,67
67150,NORDHOUSE,48.447224391800006,7.68558012653,67
67850,OFFENDORF,48.7148337726,7.92739646265,67
67490,PRINTZHEIM,48.792091669099996,7.476977475810001,67
67480,ROUNTZENHEIM,48.8214167109,7.99834154891,67
67390,SAASENHEIM,48.239955028000004,7.62929125209,67
68210,BALSCHWILLER,47.6733286773,7.16339567268,68
68490,CHALAMPE,47.8321259921,7.54929893347,68
68480,DURLINSDORF,47.49195013479999,7.23379893851,68
68580,LARGITZEN,47.561066335,7.19235370252,68
68610,LAUTENBACHZELL,47.9254894792,7.09657685658,68
68140,LUTTENBACH PRES MUNSTER,48.015272458599995,7.12389564467,68
68890,MEYENHEIM,47.915595397,7.37703268493,68
68380,MITTLACH,47.9945265472,7.02013274266,68
68130,SCHWOBEN,47.6075218956,7.29884312664,68
68290,SEWEN,47.807557789099995,6.88027043152,68
68700,WATTWILLER,47.842153916499996,7.175271888119999,68
69590,LA CHAPELLE SUR COISE,45.6501998891,4.49605895981,69
69870,CLAVEISOLLES,46.097671310200006,4.51103752015,69
69520,GRIGNY,45.608053526499994,4.78645083138,69
69220,LANCIE,46.1730373902,4.72575548606,69
69380,LISSIEU,45.8549753291,4.74619581314,69
69460,ODENAS,46.0937833535,4.64506094432,69
69290,ST GENIS LES OLLIERES,45.761055104200004,4.7260217760800005,69
69830,ST GEORGES DE RENEINS,46.05763236560001,4.72069943417,69
69170,ST MARCEL L ECLAIRE,45.8745331983,4.42248122756,69
69210,ST PIERRE LA PALUD,45.78182454270001,4.61622468853,69
69200,VENISSIEUX,45.7037728826,4.88137668221,69
69730,GENAY,45.898076743800004,4.83863435794,69
70300,ABELCOURT,47.7934014233,6.27774541889,70
70210,AMBIEVILLERS,47.9958871896,6.14035780584,70
70230,BOUHANS LES MONTBOZON,47.4858934785,6.280457275009999,70
70500,BOURBEVELLE,47.9147406842,5.94531974119,70
70140,BROYE AUBIGNEY MONTSEUGNY,47.3305692734,5.5187191763,70
70280,LA BRUYERE,47.8126908026,6.46989789296,70
70150,CHAMBORNAY LES PIN,47.3392690795,5.91122430181,70
70190,CHAUX LA LOTIERE,47.3822996917,5.96780533315,70
70100,ESSERTENNE ET CECEY,47.400456571499994,5.46661383685,70
70200,MAGNY DANIGON,47.6813542817,6.611238651360002,70
70000,MONTCEY,47.650035088100005,6.23995648406,70
70600,OYRIERES,47.5290658651,5.57358052333,70
70400,SECENANS,47.548679436,6.56746247212,70
71550,ANOST,47.0770713545,4.0924177980400005,71
71130,LA CHAPELLE AU MANS,46.629028159799994,3.97752672203,71
71310,LA CHAPELLE ST SAUVEUR,46.8468026106,5.26448829043,71
71460,CORMATIN,46.535532183,4.695612667190001,71
71620,DAMEREY,46.8344484396,4.99429761869,71
71510,ESSERTENNE,46.8109722514,4.54150474121,71
71700,GREVILLY,46.5129383908,4.819399582180001,71
71960,IGE,46.405398262700004,4.73487976051,71
71480,JOUDES,46.473207584099995,5.33948956282,71
71340,MELAY,46.1993430373,4.01334555514,71
71300,MONTCEAU LES MINES,46.6762539128,4.3540960404,71
71270,MOUTHIER EN BRESSE,46.86380751350001,5.38060673295,71
71220,PASSY,46.540874681300004,4.53540370263,71
71390,ST BOIL,46.641681848500006,4.69957680942,71
71190,ST DIDIER SUR ARROUX,46.832913623,4.10029062388,71
71430,ST VINCENT BRAGNY,46.5253910915,4.12604476033,71
71250,SALORNAY SUR GUYE,46.5174514836,4.6006444858,71
71240,SENNECEY LE GRAND,46.636917474200004,4.8906553054,71
71520,TRAMBLY,46.3310184112,4.53251400851,71
27160,LE CHESNE,48.891044970699994,0.93590219795,27
27940,COURCELLES SUR SEINE,49.1852202831,1.3661283538299998,27
27440,ECOUIS,49.3066926655,1.42999721744,27
27310,FLANCOURT CATELON,49.331951465,0.7561541571799999,27
27470,FONTAINE L ABBE,49.088329178500004,0.687966226442,27
27600,GAILLON,49.1591132617,1.34701632223,27
27350,LE LANDIN,49.40676705590001,0.8035955217540001,27
27330,LA NEUVE LYRE,48.9023268219,0.736464562108,27
27910,PERRUEL,49.4322323114,1.36153418506,27
27120,LE PLESSIS HEBERT,48.9816522888,1.36285630147,27
27560,LA POTERIE MATHIEU,49.2525189802,0.522008481634,27
27210,ST SULPICE DE GRIMBOUVILLE,49.375170989,0.448722234228,27
28120,BLANDAINVILLE,48.315378049799996,1.29204429237,28
28410,BOUTIGNY PROUAIS,48.734391613599996,1.56955678251,28
28480,CHASSANT,48.2920478755,1.06748981615,28
28160,DANGEAU,48.1969504376,1.27633745372,28
28310,INTREVILLE,48.298237881400006,1.93552953534,28
28150,LOUVILLE LA CHENARD,48.3262102975,1.7951946927700002,28
29520,CHATEAUNEUF DU FAOU,48.18897328590001,-3.82126129764,29
29880,GUISSENY,48.6169101259,-4.41110953523,29
29860,KERSAINT PLABENNEC,48.47920395479999,-4.36259963569,29
29140,MELGVEN,47.9129471121,-3.84206992486,29
29810,PLOUARZEL,48.4388139541,-4.72098791588,29
29250,SANTEC,48.700059556599996,-4.02979290086,29
20090,AJACCIO,41.9347926638,8.70132275974,2A
20190,AZILONE AMPAZA,41.8704409452,9.01683572798,2A
20136,BOCOGNANO,42.0887432861,9.07100445274,2A
20114,FIGARI,41.516304378899996,9.12059415829,2A
20128,GROSSETO PRUGNA,41.8837141916,8.87384830361,2A
20160,LETIA,42.214927495,8.87701144967,2A
20117,OCANA,41.9503939626,8.909888839,2A
20118,VICO,42.150639069499995,8.73051107045,2A
20260,CALENZANA,42.4784267166,8.80369225001,2B
20237,CASABIANCA,42.4472062738,9.37216855737,2B
20215,CASALTA,42.4353535822,9.42365261956,2B
20245,MANSO,42.3708830092,8.81890618067,2B
20272,PIANELLO,42.2974342822,9.3564849258,2B
20230,SAN GIOVANNI DI MORIANI,42.373096331199996,9.46541508806,2B
20220,SANTA REPARATA DI BALAGNA,42.6011280818,8.931558523180001,2B
30450,AUJAC,44.3551368588,4.0186085056800005,30
30170,LA CADIERE ET CAMBO,43.9631178166,3.80678957516,30
30350,CARDET,44.014875409,4.089123657819998,30
30750,CAUSSE BEGON,44.0660478253,3.35485547926,30
30630,GOUDARGUES,44.2089882991,4.43936949575,30
30110,LAVAL PRADEL,44.2151183634,4.0646367548,30
30130,ST ALEXANDRE,44.2239447184,4.631701359069999,30
30960,ST JEAN DE VALERISCLE,44.2344720067,4.14029617463,30
30760,SALAZAC,44.2565156091,4.53650899935,30
31510,CIER DE RIVIERE,43.058209370200004,0.626576681878,31
31230,FABAS,43.3119614436,0.8931188323799999,31
31440,FRONSAC,42.954064164399995,0.662252596199,31
31310,GOUTEVERNISSE,43.214026301400004,1.17376592029,31
31800,LALOURET LAFFITEAU,43.1867504971,0.700251649847,31
31430,MARIGNAC LASCLARES,43.3049878647,1.10662037582,31
31460,MASCARVILLE,43.5587512833,1.75383087377,31
31140,PECHBONNIEU,43.711258488599995,1.45879137829,31
31290,RIEUMAJOU,43.412025318299996,1.80278732023,31
31240,L UNION,43.654247042799994,1.48394847329,31
32370,BOURROUILLAN,43.8280033037,-0.00793722543784,32
32800,CAMPAGNE D ARMAGNAC,43.8609046088,0.00746700396669,32
32700,CASTERA LECTOUROIS,43.9893066009,0.611642801216,32
32120,MARAVAT,43.760470895699996,0.7651203088349999,32
32220,MONTPEZAT,43.3888998554,0.977281314352,32
32340,PEYRECAVE,43.9964330761,0.8096863606199999,32
32810,ROQUELAURE,43.7239375503,0.593217986978,32
32310,ROQUES,43.8412918051,0.29788433120700003,32
33390,BERSON,45.1170453361,-0.574457509395,33
33210,CASTILLON DE CASTETS,44.549611037,-0.109905368493,33
33150,CENON,44.854832566499994,-0.521018807062,33
33460,MACAU,45.004972156,-0.612661871132,33
33660,PUYNORMAND,44.981493818900006,-0.0017603454423199996,33
33230,ST CHRISTOPHE DE DOUBLE,45.0834847193,0.023113159210900003,33
33750,ST GERMAIN DU PUCH,44.8518771746,-0.33405726908100003,33
33920,SAUGON,45.185092781,-0.501188471075,33
33670,LA SAUVE,44.762961103900004,-0.311980129147,33
35370,GENNES SUR SEICHE,47.998353771400005,-1.13315830309,35
35380,PAIMPONT,48.030192406000005,-2.1734205870900003,35
35700,RENNES,48.1119791219,-1.6818644914399998,35
35610,TRANS LA FORET,48.487851226800004,-1.60369226136,35
36700,CHATILLON SUR INDRE,46.9917064296,1.17509631629,36
36250,NIHERNE,46.8018622942,1.55801304217,36
36120,SASSIERGES ST GERMAIN,46.7550023432,1.89054741912,36
36500,VILLEGOUIN,46.973555768900006,1.35589306474,36
37360,ST ANTOINE DU ROCHER,47.495992648299996,0.6310341359830001,37
37370,ST AUBIN LE DEPEINT,47.6184568197,0.397095725554,37
37460,VILLELOIN COULANGE,47.1350642786,1.23619125838,37
38490,LES ABRETS,45.5418940561,5.59342426222,38
38500,LA BUISSE,45.331138203,5.623564106130002,38
38530,CHAPAREILLAN,45.461591172,5.95800759236,38
38690,EYDOCHE,45.4427304269,5.33251979279,38
38710,MENS,44.814771605699995,5.75218343717,38
38390,MONTALIEU VERCIEU,45.811780957299995,5.403055900730001,38
38520,OULLES,45.0738320664,5.96330569901,38
38210,POLIENAS,45.249994361800006,5.4800749963,38
38440,ROYAS,45.50459557550001,5.10102856136,38
38350,SUSVILLE,44.9261426887,5.76206988161,38
39600,ABERGEMENT LE GRAND,46.9142864988,5.67853452364,39
39240,ARINTHOD,46.4000913267,5.58894022336,39
39250,BILLECUL,46.7464177883,6.05640813471,39
39150,CHAUX DES CROTENAY,46.662796694300006,5.95679629516,39
39230,FROIDEVILLE,46.81144337600001,5.482769796,39
40430,ARGELOUSE,44.371979481800004,-0.6327922603399999,40
40110,ARJUZANX,44.0173990827,-0.847223713681,40
40400,AUDON,43.7994823596,-0.824876470862,40
40500,MONTGAILLARD,43.7574145049,-0.480089194679,40
40390,ST MARTIN DE HINX,43.5813482178,-1.27728349893,40
41360,CELLE,47.830617300200004,0.7965118737720001,41
41190,CHAMBON SUR CISSE,47.5571092655,1.21950862437,41
41290,LA CHAPELLE ENCHERIE,47.8261991313,1.21209183111,41
41150,MESLAND,47.517473753400004,1.10007537516,41
41700,SASSAY,47.3923085381,1.44630857754,41
41300,SELLES ST DENIS,47.3757781053,1.90655896666,41
41500,SERIS,47.7567732237,1.50775532778,41
72310,LA CHAPELLE HUON,47.855875703100004,0.718983213265,72
72240,LA CHAPELLE ST FRAY,48.1087340469,0.0912246143378,72
72330,PARIGNE LE POLIN,47.8560377991,0.124440147574,72
72360,SARCE,47.722324603400004,0.228700458643,72
73340,AILLON LE VIEUX,45.6506523863,6.088106241880001,73
73540,LA BATHIE,45.63838545390001,6.4735036135,73
73330,BELMONT TRAMONET,45.5651185204,5.6763421885000005,73
73160,COGNIN,45.5594810193,5.89180815798,73
74210,CHEVALINE,45.7302662541,6.207974322130001,74
74130,CONTAMINE SUR ARVE,46.1334593706,6.33869457098,74
74370,PRINGY,45.9566469348,6.109123038150001,74
75020,PARIS 20,48.863186777399996,2.40081982673,75
76870,BEAUSSAULT,49.6894037709,1.57537767873,76
76450,BOSVILLE,49.7629078501,0.684228513933,76
76810,GREUVILLE,49.8068524505,0.910034177313,76
76116,MARTAINVILLE EPREVILLE,49.451874767,1.29465075499,76
76130,MONT ST AIGNAN,49.4676577166,1.08169720921,76
76133,ST MARTIN DU BEC,49.60066871220001,0.202278495789,76
76980,VEULES LES ROSES,49.8667629374,0.7860803519399999,76
77480,BABY,48.3894152157,3.3448043159,77
77167,BAGNEAUX SUR LOING,48.223313166400004,2.70750970158,77
77910,BARCY,49.0168774828,2.8765597995200003,77
77730,CITRY,48.960889279300005,3.24583955938,77
77380,COMBS LA VILLE,48.657908631000005,2.5751691626900004,77
77310,PRINGY,48.5176600254,2.55002787016,77
77510,REBAIS,48.8579690039,3.23286797694,77
77540,ROZAY EN BRIE,48.6835473801,2.96386164436,77
77140,ST PIERRE LES NEMOURS,48.2646880491,2.66647381403,77
77148,SALINS,48.431663918699996,3.0194177211,77
77174,VILLENEUVE ST DENIS,48.8124542945,2.79328879273,77
78125,ST HILARION,48.6224983516,1.7286152785299995,78
78110,LE VESINET,48.8938640591,2.13039312004,78
79600,AIRVAULT,46.832972510299996,-0.135880248296,79
79290,BOUILLE ST PAUL,47.0350297953,-0.314425439362,79
79260,LA CRECHE,46.365696460600006,-0.309032604795,79
79100,PAS DE JEU,46.9791242431,-0.062634350018,79
79400,ST MAIXENT L ECOLE,46.412831902700006,-0.210238265156,79
79240,ST PAUL EN GATINE,46.6396545543,-0.6172011858199999,79
80910,ARVILLERS,49.7318756883,2.63586531946,80
80220,BOUTTENCOURT,49.95058439140001,1.61002732845,80
80330,CAGNY,49.8505763421,2.33749287161,80
80580,EAUCOURT SUR SOMME,50.0682542409,1.88826877108,80
80500,FONTAINE SOUS MONTDIDIER,49.655072444300004,2.50539599355,80
80460,FRIAUCOURT,50.0873184654,1.47414674764,80
80440,HAILLES,49.7990959999,2.4288201971200003,80
80520,MENESLIES,50.0580071022,1.49366891391,80
80160,ST SAUFLIEU,49.7853940061,2.2529940743,80
62760,THIEVRES,50.11838591380001,2.46138718753,80
80480,VERS SUR SELLES,49.8423395184,2.22500540619,80
81110,ARFONS,43.4246280081,2.18966306697,81
81140,CAHUZAC SUR VERE,43.9863939929,1.91547444957,81
81340,LACAPELLE PINET,44.067707641400006,2.35434693156,81
81630,TAURIAC,43.879546511499996,1.5936563121899998,81
81330,VABRE,43.705546106199996,2.42328565025,81
81350,VALDERIES,44.0186880847,2.23180106024,81
82150,BELVEZE,44.3272081162,1.09030748279,82
82370,CAMPSAS,43.8873028891,1.32880119974,82
82210,MERLES,44.0647889391,0.966661565341,82
83440,FAYENCE,43.610334582200004,6.67843279926,83
83780,FLAYOSC,43.542212098,6.36275720984,83
83470,POURCIEUX,43.4646440633,5.78860890398,83
83690,TOURTOUR,43.5935800875,6.310682972,83
84220,CABRIERES D AVIGNON,43.8965322686,5.15279801626,84
84340,ENTRECHAUX,44.222473076499995,5.13332490403,84
84430,MONDRAGON,44.2429843935,4.72457377095,84
84100,ORANGE,44.128913536999995,4.8098792403,84
84440,ROBION,43.85196787180001,5.11008684319,84
85120,ST HILAIRE DE VOUST,46.5914988312,-0.651486245674,85
85300,SOULLANS,46.7951288466,-1.91392699457,85
86180,BUXEROLLES,46.6054095506,0.369205479606,86
86410,DIENNE,46.441439338100004,0.5374365230789999,86
86240,LIGUGE,46.5205840634,0.298086285921,86
86360,MONTAMISE,46.628549808100004,0.434064496857,86
86340,NOUAILLE MAUPERTUIS,46.5052879632,0.418002332762,86
86220,LES ORMES,46.964992735200006,0.6222696623080001,86
86290,THOLLET,46.4381388377,1.12576757467,86
87130,CHATEAUNEUF LA FORET,45.6947594412,1.61002083984,87
87890,JOUAC,46.3495733978,1.25939888968,87
87470,PEYRAT LE CHATEAU,45.808256002600004,1.7824868831,87
87570,RILHAC RANCON,45.907785002299995,1.33257526084,87
87500,ST YRIEIX LA PERCHE,45.525111151400004,1.20386934296,87
87430,VERNEUIL SUR VIENNE,45.8504654455,1.1294777260200002,87
88520,BAN DE LAVELINE,48.2280944054,7.08440511978,88
88130,RUGNEY,48.3482485017,6.25242889528,88
88290,THIEFOSSE,47.9659189559,6.729919118350001,88
89770,CHAILLEY,48.0904019735,3.68619871667,89
89520,SAINTS EN PUISAYE,47.623134555600004,3.27095693205,89
89430,TANLAY,47.844633852,4.08770006589,89
90150,LACOLLONGE,47.6639071503,6.960325553430001,90
90400,VEZELOIS,47.6094018086,6.919085069360001,90
91220,BRETIGNY SUR ORGE,48.6025113399,2.3021623232,91
91410,CHATIGNONVILLE,48.4687599817,1.93252874595,91
91450,ETIOLLES,48.6501283496,2.48331098589,91
91690,FONTAINE LA RIVIERE,48.3602367763,2.16482780211,91
91150,MESPUITS,48.35830124090001,2.27660044339,91
91580,SOUZY LA BRICHE,48.5269161626,2.15432082253,91
93390,CLICHY SOUS BOIS,48.907628510600006,2.5462022266,93
94130,NOGENT SUR MARNE,48.8366634713,2.48166741533,94
95800,CERGY,49.0401131567,2.05082123731,95
95330,DOMONT,49.0296655684,2.32290103729,95
95220,HERBLAY,49.0007002763,2.14967680776,95
95580,MARGENCY,49.0014888466,2.28907008969,95
95500,LE THILLAY,49.004277001000005,2.46927524969,95
97180,STE ANNE,,,
97221,LE CARBET,,,
97234,FORT DE FRANCE,,,
97232,LE LAMENTIN,,,
97250,LE PRECHEUR,,,
97222,BELLEFONTAINE,,,
98790,HAO,,,
98741,HIVA OA,,,
98703,PUNAAUIA,,,
98753,RURUTU,,,
98747,UA HUKA,,,
98745,UA POU,,,
98880,LA FOA,,,
98799,ILE DE CLIPPERTON,,,
27380,DOUVILLE SUR ANDELLE,49.3329198858,1.30756774405,27
27230,HEUDREVILLE EN LIEUVIN,49.1933109292,0.503312662769,27
27540,IVRY LA BATAILLE,48.886265363,1.44688887159,27
27720,NOYERS,49.2458221928,1.67352293727,27
27290,PONT AUTHOU,49.242326912299994,0.7022222263429999,27
27250,ST ANTONIN DE SOMMAIRE,48.8295332796,0.662693828241,27
27710,ST GEORGES MOTEL,48.7922570884,1.35958388782,27
27370,ST GERMAIN DE PASQUIER,49.2419000465,1.00241263346,27
27680,ST SAMSON DE LA ROQUE,49.42576562,0.4250500322900001,27
27180,ST SEBASTIEN DE MORSENT,49.012550148900004,1.07438380244,27
28330,BETHONVILLIERS,48.2309678406,0.900029304684,28
28200,LA CHAPELLE DU NOYER,48.0424164901,1.31784334889,28
28270,ESCORPAIN,48.71974714899999,1.21490953697,28
28800,FLACEY,48.1513426394,1.33294278767,28
28630,GELLAINVILLE,48.4162199686,1.53530515243,28
28190,ST GEORGES SUR EURE,48.4195557033,1.3574348552200002,28
29190,LE CLOITRE PLEYBEN,48.2580934437,-3.89646330855,29
29590,LE FAOU,48.305933404099996,-4.1421494556,29
29180,GUENGAT,48.0409767863,-4.19583398149,29
29260,LANARVILY,48.5609189419,-4.38280376453,29
29460,LOGONNA DAOULAS,48.3286587483,-4.28895101549,29
29720,PLOVAN,47.9325748846,-4.36035398451,29
29310,QUERRIEN,47.955393764499995,-3.5478131308800007,29
20170,LEVIE,41.651639000100005,9.11567295923,2A
20140,OLIVESE,41.8404362861,9.06885180924,2A
20166,PIETROSELLA,41.8283411519,8.8134589974,2A
20123,PILA CANALE,41.7923350727,8.898783665449999,2A
20167,VILLANOVA,41.9635153362,8.669746216050001,2A
20218,CASTIFAO,42.5259960689,9.11827028996,2B
20238,CENTURI,42.967184653000004,9.36449852317,2B
20234,FELCE,42.3462578102,9.42479183294,2B
30260,LIOUC,43.889749181599996,3.98276323477,30
30730,MONTPEZAT,43.8539397379,4.15932886885,30
30330,LE PIN,44.089332023000004,4.53499161129,30
30430,RIVIERES,44.2144809997,4.2885330384500016,30
30610,ST JEAN DE CRIEULON,43.965851469499995,3.99917970846,30
30290,ST VICTOR LA COSTE,44.0551218504,4.64162593876,30
31110,CAZARIL LASPENES,42.8031770171,0.581463334845,31
31450,FOURQUEVAUX,43.498117621999995,1.62175051569,31
31540,MAURENS,43.466341668999995,1.7977957353799998,31
31410,MAUZAC,43.375610075299996,1.3028329846100002,31
31380,MONTJOIRE,43.7787304929,1.52666645507,31
31480,PELLEPORT,43.7414209784,1.1186692391500002,31
31220,LE PLAN,43.167200288400004,1.1222766563600002,31
31190,PUYDANIEL,43.3315793441,1.42275207158,31
31600,SEYSSES,43.498891579399995,1.28690575634,31
32140,BELLEGARDE,43.4269943275,0.6321101246140001,32
32100,BLAZIERT,43.925934214799994,0.484820002979,32
32110,CAUPENNE D ARMAGNAC,43.78428263520001,-0.0711396072349,32
32330,MOUCHAN,43.899629775200005,0.306322638694,32
32550,PAVIE,43.605614575,0.589850870884,32
32190,VIC FEZENSAC,43.762029942,0.297842185088,32
33440,AMBARES ET LAGRAVE,44.9444897713,-0.500579133995,33
33240,AUBIE ET ESPESSAS,45.021801759300004,-0.404998298287,33
33640,CASTRES GIRONDE,44.68587849470001,-0.455026609065,33
33790,LANDERROUAT,44.742505829399995,0.160918010334,33
33620,LARUSCADE,45.12379826229999,-0.344529143591,33
33290,PAREMPUYRE,44.954150966099995,-0.580766578801,33
33141,SAILLANS,44.9570462832,-0.271169418164,33
35470,PLECHATEL,47.8751941838,-1.7337584653099998,35
